     2.11           OBSERVATION DATA    G (GPS)             RINEX VERSION / TYPE
teqc  2016Apr1      gpsops              20170205 00:16:18UTCPGM / RUN BY / DATE
Linux 2.4.21-27.ELsmp|Opteron|gcc -static|Linux x86_64|=+   COMMENT
BIT 2 OF LLI FLAGS DATA COLLECTED UNDER A/S CONDITION       COMMENT
TIDB                                                        MARKER NAME
50103M108                                                   MARKER NUMBER
GGN                 JPL                                     OBSERVER / AGENCY
UC2200524011        ASHTECH UZ-12       CQ00                REC # / TYPE / VERS
402                 AOAD/M_T        NONE                    ANT # / TYPE
 -4460996.4047  2682557.0885 -3674443.3930                  APPROX POSITION XYZ
        0.0614        0.0000        0.0000                  ANTENNA: DELTA H/E/N
     1     1                                                WAVELENGTH FACT L1/2
     7    L1    L2    P1    P2    C1    S1    S2            # / TYPES OF OBSERV
    30.0000                                                 INTERVAL
                                                            COMMENT
This data is provided as a public service by NASA/JPL.      COMMENT
No warranty is expressed or implied regarding suitability   COMMENT
for use.  For further information, contact:                 COMMENT
Dave Stowers, NASA/JPL m/s 238-600                          COMMENT
4800 Oak Grove Drive, Pasadena CA 91109 USA                 COMMENT
                                                            COMMENT
Forced Modulo Decimation to 30 seconds                      COMMENT
 SNR is mapped to RINEX snr flag value [0-9]                COMMENT
  L1 & L2: min(max(int(snr_dBHz/6), 0), 9)                  COMMENT
pseudorange smoothing corrections not applied               COMMENT
  2017     2     4     0     0    0.0000000     GPS         TIME OF FIRST OBS
                                                            END OF HEADER
 17  2  4  0  0  0.0000000  0  8G06G15G19G24G12G17G28G02
 -21004158.79949 -16350825.57348  20675595.2884   20675601.4574   20675594.601
        57.0004         52.0004
  -1633006.92646  -1258392.40345  24870320.3914   24870324.1404   24870320.196
        39.0004         34.0004
 -18270780.40449 -14179714.73048  21396125.6364   21396127.8284   21396126.729
        55.0004         50.0004
 -19233983.09549 -14944780.59548  21236781.9704   21236787.0884   21236781.169
        55.0004         50.0004
 -11020631.70148  -8579794.70147  22941725.9254   22941728.6284   22941725.374
        50.0004         45.0004
 -15078826.47348 -11740466.48947  22069697.0864   22069700.4724   22069696.781
        52.0004         47.0004
  -3871178.34747  -2957865.50146  24300215.8914   24300221.5824   24300216.907
        42.0004         38.0004
 -16200696.49448 -12562788.71747  21753017.5844   21753019.8734   21753018.335
        52.0004         47.0004
 17  2  4  0  0 30.0000000  0  8G06G15G19G24G12G17G28G02
 -21028453.49249 -16369756.49848  20670972.2364   20670978.0794   20670971.686
        57.0004         52.0004
  -1563364.03246  -1204125.23045  24883572.9924   24883580.6774   24883573.250
        40.0004         35.0004
 -18223349.01449 -14142755.22548  21405151.5404   21405153.6654   21405152.593
        55.0004         50.0004
 -19268617.81449 -14971768.68748  21230190.8884   21230196.3514   21230190.399
        55.0004         50.0004
 -11095807.73048  -8638373.42347  22927419.6484   22927423.5574   22927420.734
        50.0004         45.0004
 -14997123.48048 -11676801.85547  22085244.4674   22085247.8604   22085244.238
        52.0004         47.0004
  -3781514.10647  -2887997.34046  24317278.6374   24317284.6904   24317279.717
        43.0004         39.0004
 -16302479.03948 -12642099.76747  21733649.4384   21733651.0734   21733649.356
        52.0004         47.0004
 17  2  4  0  1  0.0000000  0  8G06G15G19G24G12G17G28G02
 -21052159.05249 -16388228.35448  20666461.0824   20666467.2094   20666460.194
        57.0004         52.0004
  -1493694.24246  -1149837.19545  24896830.4084   24896836.7914   24896832.078
        39.0004         34.0004
 -18175706.86249 -14105631.48448  21414217.5254   21414219.5834   21414218.351
        55.0004         50.0004
 -19302695.88549 -14998323.02648  21223705.9844   21223711.6764   21223705.568
        55.0004         50.0004
 -11170960.48948  -8696934.00247  22913118.9964   22913121.9704   22913118.969
        50.0004         45.0004
 -14915279.98948 -11613027.73947  22100818.9094   22100821.7344   22100818.674
        52.0004         47.0004
  -3691737.61747  -2818041.70446  24334361.6094   24334367.8294   24334362.931
        42.0004         37.0004
 -16403935.95148 -12721157.08248  21714342.3844   21714345.0194   21714343.224
        52.0004         48.0004
 17  2  4  0  1 30.0000000  0  8G06G15G19G24G12G17G28G02
 -21075274.60149 -16406240.46748  20662062.1854   20662068.1504   20662061.660
        57.0004         52.0004
  -1424000.25246  -1095530.24045  24910094.3614   24910101.4124   24910093.201
        39.0004         35.0004
 -18127855.03649 -14068344.36048  21423323.5244   21423325.4334   21423324.417
        55.0004         50.0004
 -19336215.57649 -15024442.26748  21217327.4234   21217333.0374   21217326.947
        55.0004         50.0004
 -11246088.81748  -8755475.54947  22898822.2004   22898825.5934   22898822.000
        50.0004         45.0004
 -14833297.82648 -11549145.57447  22116419.7134   22116422.9694   22116419.284
        52.0004         47.0004
  -3601849.31846  -2747999.02346  24351467.5864   24351472.5054   24351467.628
        41.0004         37.0004
 -16505064.03648 -12799958.17148  21695098.2094   21695100.3354   21695098.686
        52.0004         48.0004
 17  2  4  0  2  0.0000000  0  8G06G15G19G24G12G17G28G02
 -21097799.49649 -16423792.33048  20657775.9924   20657781.9164   20657775.248
        57.0004         52.0004
  -1354284.68446  -1041206.49645  24923359.4614   24923365.6274   24923360.486
        40.0004         35.0004
 -18079795.30049 -14030895.23448  21432468.8404   21432471.1464   21432469.858
        55.0004         50.0004
 -19369175.65449 -15050125.44748  21211055.3804   21211060.7614   21211054.971
        55.0004         51.0004
 -11321192.20048  -8813997.65047  22884531.1134   22884534.1664   22884530.141
        50.0004         45.0004
 -14751178.83148 -11485156.78247  22132046.3104   22132049.9234   22132046.425
        52.0004         47.0004
  -3511849.36147  -2677869.25846  24368594.9254   24368600.6714   24368595.072
        42.0004         38.0004
 -16605860.58748 -12878500.92248  21675917.6184   21675919.3114   21675917.917
        52.0004         48.0004
 17  2  4  0  2 30.0000000  0  8G06G15G19G24G12G17G28G02
 -21119733.06849 -16440883.41548  20653602.1514   20653608.0874   20653601.561
        57.0004         52.0004
  -1284550.72856   -986868.44455  24936631.9765   24936637.0695   24936629.224
        40.0004         35.0004
 -18031529.50549 -13993285.53948  21441653.8014   21441655.8204   21441654.488
        55.0004         50.0004
 -19401574.83649 -15075371.56248  21204890.1704   21204895.6344   21204889.644
        55.0004         51.0004
 -11396269.75848  -8872499.64047  22870244.7124   22870247.2934   22870243.687
        50.0004         45.0004
 -14668925.07048 -11421062.97847  22147698.9224   22147702.3794   22147698.217
        52.0004         47.0004
  -3421738.45247  -2607653.06746  24385743.1664   24385748.8784   24385743.408
        43.0004         39.0004
 -16706322.79448 -12956783.14648  21656800.0094   21656801.9634   21656800.796
        52.0004         48.0004
 17  2  4  0  3  0.0000000  0  8G06G15G19G24G12G17G28G02
 -21141074.50849 -16457513.10648  20649541.0244   20649546.9494   20649540.546
        57.0004         52.0004
  -1214800.95246   -932518.03945  24949902.6624   24949905.3674   24949902.406
        39.0004         34.0004
 -17983058.62949 -13955516.04348  21450877.4104   21450879.2944   21450878.280
        55.0004         50.0004
 -19433411.63349 -15100179.45948  21198831.6754   21198837.1104   21198831.488
        55.0004         51.0004
 -11471320.38148  -8930980.63647  22855963.1454   22855965.1704   22855962.136
        50.0004         45.0004
 -14586538.21348 -11356865.46347  22163376.2054   22163379.8464   22163375.963
        52.0004         47.0004
  -3331516.50646  -2537350.42546  24402912.6484   24402915.9454   24402912.466
        41.0004         36.0004
 -16806447.28048 -13034802.21148  21637746.8584   21637748.9584   21637747.598
        53.0004         48.0004
 17  2  4  0  3 30.0000000  0  8G06G15G19G24G12G17G28G02
 -21161823.29749 -16473680.99048  20645592.6314   20645598.7094   20645591.893
        57.0004         52.0004
  -1145038.33846   -878157.60545  24963180.7144   24963184.5724   24963179.415
        40.0004         35.0004
 -17934384.70949 -13917588.32948  21460139.6864   21460141.8134   21460140.595
        55.0004         50.0004
 -19464684.88549 -15124548.22748  21192880.6684   21192886.3464   21192880.124
        55.0004         51.0004
 -11546343.30648  -8989440.04847  22841686.4674   22841689.0454   22841685.179
        50.0004         45.0004
 -14504019.92548 -11292565.53847  22179079.2134   22179082.3184   22179078.744
        52.0004         47.0004
  -3241184.36046  -2466961.69046  24420100.4094   24420105.1184   24420101.449
        41.0004         37.0004
 -16906231.48448 -13112556.11948  21618758.8284   21618761.0394   21618759.377
        53.0004         48.0004
 17  2  4  0  4  0.0000000  0  8G06G15G19G24G12G17G28G02
 -21181978.66049 -16489386.46648  20641757.2984   20641763.1224   20641756.701
        57.0004         52.0004
  -1075265.66946   -823789.44346  24976455.7554   24976462.8794   24976455.458
        40.0004         36.0004
 -17885508.91549 -13879503.31148  21469440.6924   21469442.6614   21469441.376
        55.0004         50.0004
 -19495392.79549 -15148476.47248  21187037.1304   21187042.5454   21187036.771
        55.0004         51.0004
 -11621337.47848  -9047877.04947  22827414.6864   22827417.7814   22827414.727
        50.0004         45.0004
 -14421372.01548 -11228164.60547  22194806.5294   22194810.1664   22194806.567
        52.0004         47.0004
  -3150742.33547  -2396487.41546  24437312.0154   24437317.0894   24437312.866
        42.0004         38.0004
 -17005672.34048 -13190042.48948  21599835.7364   21599837.6024   21599836.605
        53.0004         48.0004
 17  2  4  0  4 30.0000000  0  8G06G15G19G24G12G17G28G02
 -21201540.18549 -16504629.20748  20638034.7594   20638040.7514   20638034.168
        57.0004         52.0004
  -1005486.07346   -769415.80046  24989736.8094   24989740.5664   24989735.908
        41.0004         37.0004
 -17836432.99849 -13841262.35548  21478779.3094   21478781.8404   21478780.086
        55.0004         50.0004
 -19525534.49749 -15171963.51748  21181301.5394   21181306.5934   21181300.884
        55.0004         51.0004
 -11696301.85648  -9106290.83847  22813150.5154   22813153.4264   22813149.126
        50.0004         45.0004
 -14338596.13548 -11163663.95547  22210558.3424   22210561.7694   22210558.050
        52.0004         47.0004
  -3060190.83847  -2325927.92146  24454542.9294   24454548.6864   24454543.025
        42.0004         37.0004
 -17104766.86348 -13267258.97448  21580978.7634   21580980.7534   21580979.458
        53.0004         48.0004
 17  2  4  0  5  0.0000000  0  7G06G15G19G24G12G17G02
 -21220507.18549 -16519408.68648  20634425.3984   20634431.4714   20634424.956
        57.0004         52.0004
   -935702.15946   -715038.76546  25003015.0594   25003017.9314   25003014.354
        41.0004         36.0004
 -17787158.31549 -13802866.51348  21488155.8594   21488158.2454   21488156.750
        55.0004         50.0004
 -19555109.01549 -15195008.60048  21175673.3204   21175679.0264   21175673.065
        55.0004         51.0004
 -11771236.00448  -9164681.07347  22798889.8714   22798893.1844   22798889.849
        50.0004         45.0004
 -14255694.29148 -11099065.15347  22226333.7344   22226337.1904   22226333.725
        51.0004         47.0004
 -17203512.39148 -13344203.51748  21562188.0204   21562190.1794   21562188.589
        53.0004         48.0004
 17  2  4  0  5 30.0000000  0  8G06G15G19G24G12G17G28G02
 -21238879.12449 -16533724.48048  20630929.5364   20630935.3164   20630928.896
        57.0004         52.0004
   -865916.56746   -660660.50546  25016294.5664   25016299.0444   25016294.659
        41.0004         36.0004
 -17737686.38449 -13764316.97648  21497570.2134   21497572.5234   21497571.110
        55.0004         50.0004
 -19584114.31349 -15217610.14248  21170154.0834   21170159.4804   21170153.607
        55.0004         51.0004
 -11846138.37548  -9223046.54147  22784636.9734   22784639.2864   22784636.342
        50.0004         45.0004
 -14172667.84548 -11034369.25947  22242133.6374   22242137.0724   22242133.063
        51.0004         47.0004
     87687.64149     53045.13246  24489068.4444   24489075.3054   24489069.449
        54.0004         38.0004
 -17301905.99148 -13420873.83948  21543464.3124   21543466.0194   21543464.906
        53.0004         48.0004
 17  2  4  0  6  0.0000000  0  8G06G15G19G24G12G17G28G02
 -21256655.52449 -16547576.21848  20627546.7714   20627552.6534   20627546.134
        57.0004         52.0004
   -796132.19946   -606283.17746  25029575.1994   25029580.2674   25029575.365
        41.0004         37.0004
 -17688018.92149 -13725615.07348  21507021.8774   21507023.9324   21507022.587
        55.0004         50.0004
 -19612549.58849 -15239767.50548  21164742.8704   21164748.3134   21164742.465
        55.0004         51.0004
 -11921008.24148  -9281386.68147  22770389.5024   22770392.2774   22770388.966
        50.0004         45.0004
 -14089518.84848 -10969577.87547  22257956.3864   22257959.6344   22257955.961
        51.0004         47.0004
    178565.42448    123858.91346  24506362.2524   24506367.9704   24506362.606
        48.0004         37.0004
 -17399944.51648 -13497267.47448  21524808.4064   21524809.9954   21524808.966
        53.0004         48.0004
 17  2  4  0  6 30.0000000  0  8G06G15G19G24G12G17G28G02
 -21273835.86749 -16560963.49248  20624277.5484   20624283.3784   20624276.612
        57.0004         52.0004
   -726351.86947   -551908.99746  25042852.5194   25042858.6524   25042852.936
        42.0004         37.0004
 -17638157.27249 -13686761.85748  21516510.0894   21516512.2984   21516510.788
        55.0004         50.0004
 -19640413.38649 -15261479.56048  21159440.7854   21159446.0734   21159440.274
        55.0004         51.0004
 -11995844.58848  -9339700.70747  22756149.2804   22756150.7864   22756148.108
        50.0004         45.0004
 -14006248.79348 -10904692.15047  22273802.1014   22273805.4754   22273801.928
        51.0004         47.0004
    269551.13847    194756.79246  24523675.7454   24523681.1734   24523676.048
        44.0004         37.0004
 -17497625.12148 -13573382.21148  21506220.5524   21506222.0604   21506220.697
        53.0004         48.0004
 17  2  4  0  7  0.0000000  0  8G06G15G19G24G12G17G28G02
 -21290419.67049 -16573885.93248  20621121.6824   20621127.4774   20621120.990
        57.0004         52.0004
   -656578.31246   -497540.05946  25056128.8304   25056135.3384   25056129.364
        41.0004         37.0004
 -17588103.06249 -13647758.58948  21526035.0404   21526037.4304   21526036.069
        55.0004         50.0004
 -19667704.65549 -15282745.48948  21154247.2804   21154252.6344   21154246.799
        55.0004         51.0004
 -12070646.45948  -9397987.86947  22741914.6364   22741916.5234   22741914.189
        50.0004         45.0004
 -13922859.43748 -10839713.46747  22289670.3564   22289673.6234   22289670.152
        51.0004         46.0004
    360644.16947    265738.24946  24541010.4784   24541016.7734   24541010.518
        42.0004         37.0004
 -17594944.98748 -13649215.85648  21487700.8254   21487702.6614   21487701.643
        53.0004         48.0004
 17  2  4  0  7 30.0000000  0  8G06G15G19G24G12G17G28G02
 -21306406.49649 -16586343.19448  20618079.4374   20618085.4444   20618078.686
        57.0004         52.0004
   -586814.70646   -443178.90146  25069404.8064   25069411.1464   25069405.539
        41.0004         37.0004
 -17537857.81549 -13608606.46748  21535596.7764   21535598.6654   21535597.331
        55.0004         50.0004
 -19694421.94049 -15303564.16048  21149163.0254   21149168.4354   21149162.617
        55.0004         51.0004
 -12145412.70348  -9456247.26247  22727686.1954   22727689.9124   22727686.540
        50.0004         45.0004
 -13839352.58248 -10774643.23047  22305561.5834   22305564.5364   22305560.954
        51.0004         46.0004
    451844.31346    336803.19046  24558365.8974   24558373.9354   24558366.069
        41.0004         36.0004
 -17691901.18148 -13724766.11848  21469250.7424   21469252.7134   21469251.175
        53.0004         48.0004
 17  2  4  0  8  0.0000000  0  8G06G15G19G24G12G17G28G02
 -21321795.96149 -16598334.98048  20615150.9454   20615156.8794   20615150.123
        57.0004         52.0004
   -517063.54547   -388827.44146  25082677.7694   25082684.5164   25082677.084
        42.0004         38.0004
 -17487423.37549 -13569306.92048  21545193.5844   21545195.9584   21545194.432
        55.0004         50.0004
 -19720565.00849 -15323935.38548  21144188.1974   21144193.8844   21144187.835
        55.0004         51.0004
 -12220142.77748  -9514478.48547  22713465.2154   22713469.6004   22713465.961
        50.0004         45.0004
 -13755730.09648 -10709482.88447  22321474.4854   22321477.5014   22321473.829
        51.0004         46.0004
    543150.90546    407951.08045  24575737.9414   24575746.1694   24575740.632
        40.0004         34.0004
 -17788490.90648 -13800030.81348  21450870.2914   21450871.9994   21450870.697
        53.0004         48.0004
 17  2  4  0  8 30.0000000  0  8G06G15G19G24G12G17G28G02
 -21336587.60349 -16609860.93148  20612336.2144   20612342.0344   20612335.454
        57.0004         52.0004
   -447327.55446   -334487.83946  25095949.4444   25095955.3614   25095949.933
        41.0004         36.0004
 -17436800.56549 -13529860.58548  21554827.1834   21554829.2304   21554827.970
        55.0004         50.0004
 -19746131.78949 -15343857.55948  21139323.2154   21139328.7104   21139322.754
        55.0004         51.0004
 -12294835.21848  -9572680.37147  22699252.3934   22699255.6144   22699252.071
        50.0004         45.0004
 -13671993.41648 -10644233.55847  22337408.9414   22337412.2224   22337408.742
        51.0004         46.0004
                    479182.06445                  24593144.5094   24593136.639
                        33.0004
 -17884711.18948 -13875007.64148  21432560.5434   21432562.0294   21432560.483
        53.0004         48.0004
 17  2  4  0  9  0.0000000  0  7G06G15G19G24G12G17G02
 -21350781.07949 -16620920.77648  20609635.2614   20609641.3254   20609634.683
        57.0004         52.0004
   -377609.55246   -280162.15446  25109215.7644   25109221.6844   25109216.024
        41.0004         36.0004
 -17385990.98249 -13490268.71948  21564495.7974   21564498.0744   21564496.625
        55.0004         50.0004
 -19771121.11649 -15363329.77148  21134567.7154   21134573.2754   21134567.127
        55.0004         51.0004
 -12369488.99348  -9630852.13447  22685046.2584   22685049.6204   22685045.721
        50.0004         46.0004
 -13588144.10748 -10578896.48147  22353364.6984   22353368.6414   22353364.467
        51.0004         46.0004
 -17980559.41348 -13949694.55548  21414321.1724   21414322.9204   21414321.480
        53.0004         48.0004
 17  2  4  0  9 30.0000000  0  7G06G15G19G24G12G17G02
 -21364376.16849 -16631514.34748  20607048.0684   20607054.2144   20607047.345
        57.0004         52.0004
   -307912.24246   -225852.69546  25122477.7934   25122483.6664   25122478.804
        40.0004         36.0004
 -17334996.03349 -13450532.41348  21574199.7844   21574202.2424   21574200.380
        55.0004         50.0004
 -19795532.55249 -15382351.67548  21129922.3404   21129928.2544   21129921.859
        55.0004         51.0004
 -12444103.23848  -9688993.08847  22670848.0064   22670850.6344   22670848.006
        50.0004         46.0004
 -13504183.97148 -10513473.02647  22369342.4504   22369345.2564   22369341.299
        50.0004         46.0004
 -18076032.62448 -14024089.24448  21396153.0184   21396154.6124   21396153.375
        53.0004         48.0004
 17  2  4  0 10  0.0000000  0  6G06G19G24G12G17G02
 -21377372.39649 -16641641.27048  20604574.9234   20604580.9984   20604574.550
        57.0004         52.0004
 -17283817.10049 -13410652.73748  21583938.7574   21583940.9644   21583939.888
        55.0004         50.0004
 -19819364.77349 -15400922.24448  21125387.3724   21125392.7974   21125387.043
        55.0004         51.0004
 -12518676.31648  -9747101.96647  22656656.5004   22656659.5794   22656656.509
        50.0004         46.0004
 -13420114.33248 -10447964.25447  22385340.2154   22385343.5494   22385339.587
        50.0004         46.0004
 -18171127.89748 -14098189.43748  21378057.0294   21378058.5964   21378057.444
        53.0004         48.0004
 17  2  4  0 10 30.0000000  0  7G06G15G19G24G12G17G02
 -21389769.64249 -16651301.45948  20602215.9384   20602221.8794   20602215.158
        57.0004         52.0004
   -168591.04246   -117290.89546  25148993.5514   25148997.4334   25148992.905
        40.0004         36.0004
 -17232456.29049 -13370631.34548  21593712.6594   21593714.7544   21593713.497
        55.0004         50.0004
 -19842617.16449 -15419040.99748  21120962.6734   21120968.0744   21120962.069
        55.0004         51.0004
 -12593208.22448  -9805178.76147  22642474.5974   22642476.8034   22642473.408
        50.0004         46.0004
 -13335937.24048 -10382371.74647  22401358.3704   22401361.4394   22401358.029
        50.0004         46.0004
 -18265842.44748 -14171992.96348  21360033.3144   21360034.9574   21360033.829
        53.0004         49.0004
 17  2  4  0 11  0.0000000  0  7G06G15G19G24G12G17G02
 -21401567.54149 -16660494.62148  20599970.7344   20599976.8024   20599969.996
        57.0004         52.0004
    -98972.52246    -63042.81346  25162240.1174   25162245.8644   25162238.317
        41.0004         36.0004
 -17180915.02649 -13330469.34048  21603520.4664   21603522.6054   21603521.146
        55.0004         50.0004
 -19865288.03849 -15436706.62248  21116648.4374   21116654.0724   21116648.029
        55.0004         51.0004
 -12667697.40348  -9863222.26747  22628298.9014   22628302.4164   22628298.823
        50.0004         46.0004
 -13251653.84648 -10316696.41247  22417397.2594   22417399.6604   22417397.118
        50.0004         46.0004
 -18360173.42148 -14245497.60348  21342082.7294   21342084.4204   21342083.119
        53.0004         49.0004
 17  2  4  0 11 30.0000000  0  6G06G19G24G12G17G02
 -21412765.82249 -16669220.54848  20597839.7984   20597845.8884   20597839.236
        57.0004         52.0004
 -17129194.33449 -13290167.51948  21613362.6684   21613364.8504   21613363.217
        55.0004         50.0004
 -19887376.94449 -15453918.76548  21112445.2274   21112450.7514   21112444.731
        55.0004         51.0004
 -12742142.99148  -9921231.80547  22614133.1214   22614135.3304   22614132.763
        51.0004         46.0004
 -13167266.35348 -10250939.96447  22433455.9654   22433458.2124   22433455.019
        50.0004         46.0004
 -18454117.90148 -14318701.07548  21324205.6334   21324207.4754   21324206.082
        53.0004         49.0004
 17  2  4  0 12  0.0000000  0  6G06G19G24G12G17G02
 -21423364.38849 -16677479.16448  20595823.0934   20595829.0134   20595822.509
        57.0004         52.0004
 -17077296.25049 -13249727.47048  21623238.4754   21623240.9324   21623239.196
        55.0004         50.0004
 -19908882.56749 -15470676.40448  21108352.7724   21108358.1874   21108352.020
        55.0004         51.0004
 -12816543.70648  -9979206.37447  22599974.8404   22599977.6664   22599974.937
        51.0004         46.0004
 -13082776.20348 -10185103.51747  22449533.1524   22449536.6534   22449533.082
        50.0004         46.0004
 -18547673.24248 -14391601.31948  21306402.6614   21306404.2194   21306403.077
        53.0004         49.0004
 17  2  4  0 12 30.0000000  0  6G06G19G24G12G17G02
 -21433362.98449 -16685270.27248  20593920.3664   20593926.2774   20593919.725
        57.0004         52.0004
 -17025221.73049 -13209149.94248  21633148.2104   21633150.3694   21633148.858
        55.0004         50.0004
 -19929803.84649 -15486978.70848  21104371.8334   21104377.1884   21104371.293
        55.0004         51.0004
 -12890898.32148 -10037145.02147  22585825.2894   22585828.5014   22585825.120
        51.0004         46.0004
 -12998185.06448 -10119188.37647  22465630.8304   22465633.4474   22465630.995
        50.0004         46.0004
 -18640836.69049 -14464196.20048  21288674.2614   21288676.0074   21288674.653
        54.0004         49.0004
 17  2  4  0 13  0.0000000  0  6G06G19G24G12G17G02
 -21442761.46549 -16692593.75648  20592131.8274   20592137.9434   20592131.152
        57.0004         52.0004
 -16972972.18549 -13168436.02648  21643091.0424   21643092.9454   21643091.619
        55.0004         50.0004
 -19950140.12549 -15502825.16548  21100501.6964   21100507.1984   21100501.332
        55.0004         51.0004
 -12965205.72148 -10095046.88247  22571685.5734   22571688.9374   22571685.490
        51.0004         46.0004
 -12913494.36948 -10053195.66847  22481747.1394   22481749.7854   22481746.509
        50.0004         46.0004
 -18733605.44149 -14536483.51248  21271021.2174   21271022.4304   21271021.412
        54.0004         49.0004
 17  2  4  0 13 30.0000000  0  6G06G19G24G12G17G02
 -21451559.71849 -16699449.53248  20590457.4914   20590463.5404   20590456.999
        57.0004         53.0004
 -16920549.12249 -13127586.90548  21653066.4634   21653069.0744   21653067.193
        55.0004         50.0004
 -19969890.73349 -15518215.25848  21096743.1534   21096748.8184   21096742.647
        55.0004         51.0004
 -13039464.82448 -10152911.09947  22557553.9764   22557556.9014   22557553.772
        51.0004         46.0004
 -12828705.82148  -9987126.70347  22497880.7644   22497885.5264   22497881.514
        50.0004         46.0004
 -18825976.64849 -14608461.05648  21253443.3644   21253444.7894   21253443.675
        54.0004         49.0004
 17  2  4  0 14  0.0000000  0  6G06G19G24G12G17G02
 -21459757.63349 -16705837.51148  20588897.6404   20588903.6654   20588896.916
        57.0004         53.0004
 -16867954.19949 -13086603.86248  21663074.9734   21663077.5174   21663075.978
        54.0004         50.0004
 -19989054.67749 -15533148.20748  21093096.3254   21093101.8474   21093096.151
        55.0004         51.0004
 -13113674.58948 -10210736.87647  22543432.5094   22543435.3104   22543432.256
        51.0004         46.0004
 -12743820.84448  -9920982.59747  22514034.1894   22514038.3044   22514033.984
        50.0004         46.0004
 -18917947.37549 -14680126.53548  21235941.8884   21235943.5244   21235942.449
        54.0004         49.0004
 17  2  4  0 14 30.0000000  0  6G06G19G24G12G17G02
 -21467355.14449 -16711757.64648  20587451.7464   20587457.8594   20587451.098
        57.0004         53.0004
 -16815188.49049 -13045487.74448  21673116.0094   21673117.8824   21673116.805
        54.0004         50.0004
 -20007630.67149 -15547623.01448  21089561.4024   21089567.1104   21089561.244
        55.0004         51.0004
 -13187833.91648 -10268523.35147  22529319.8614   22529323.6374   22529320.345
        51.0004         47.0004
 -12658840.99548  -9854764.57147  22530205.8634   22530209.3394   22530205.126
        50.0004         46.0004
 -19009515.03049 -14751477.92748  21218516.9504   21218518.6264   21218517.547
        54.0004         49.0004
 17  2  4  0 15  0.0000000  0  6G06G19G24G12G17G02
 -21474352.18549 -16717209.88148  20586120.4904   20586126.4314   20586119.749
        57.0004         53.0004
 -16762253.65549 -13004239.83648  21683189.1594   21683191.5374   21683190.121
        54.0004         50.0004
 -20025618.17649 -15561639.25948  21086138.5204   21086144.1234   21086138.303
        55.0004         51.0004
 -13261941.68948 -10326269.65247  22515218.4034   22515221.7234   22515218.059
        51.0004         47.0004
 -12573767.97748  -9788473.94347  22546394.0914   22546397.9564   22546394.080
        50.0004         46.0004
 -19100676.86949 -14822513.10048  21201169.5494   21201170.9084   21201170.200
        54.0004         49.0004
 17  2  4  0 15 30.0000000  0  6G06G19G24G12G17G02
 -21480748.77449 -16722194.23148  20584903.2904   20584909.0344   20584902.501
        57.0004         53.0004
 -16709151.05349 -12962861.20148  21693294.3044   21693296.3294   21693295.285
        54.0004         50.0004
 -20043016.27749 -15575196.23148  21082827.9274   21082833.3054   21082827.461
        55.0004         51.0004
 -13335996.92448 -10383975.01647  22501125.8544   22501128.7914   22501125.819
        51.0004         47.0004
 -12488603.13048  -9722111.76147  22562600.5274   22562604.3704   22562601.164
        50.0004         46.0004
 -19191430.22249 -14893229.98148  21183899.6844   21183901.4154   21183900.279
        54.0004         49.0004
 17  2  4  0 16  0.0000000  0  6G06G19G24G12G17G02
 -21486544.92249 -16726710.70448  20583800.1924   20583806.1474   20583799.495
        57.0004         53.0004
 -16655882.02149 -12921352.87648  21703431.0024   21703433.3124   21703431.671
        54.0004         50.0004
 -20059824.46349 -15588293.52548  21079629.4114   21079634.9644   21079629.029
        55.0004         51.0004
 -13409998.06548 -10441638.22847  22487044.1324   22487046.6504   22487043.618
        51.0004         47.0004
 -12403348.24248  -9655679.41747  22578824.7724   22578828.0764   22578824.754
        50.0004         46.0004
 -19281772.24149 -14963626.33848  21166708.1554   21166709.7024   21166708.544
        54.0004         49.0004
 17  2  4  0 16 30.0000000  0  6G06G19G24G12G17G02
 -21491740.59149 -16730759.27348  20582811.5214   20582817.3914   20582810.767
        57.0004         53.0004
 -16602448.29849 -12879716.22648  21713598.9724   21713601.3804   21713599.679
        54.0004         50.0004
 -20076042.30449 -15600930.80948  21076543.1974   21076548.6104   21076543.107
        55.0004         51.0004
 -13483943.82948 -10499258.28947  22472972.4724   22472975.2754   22472972.318
        51.0004         47.0004
 -12318004.64248  -9589177.94547  22595064.1754   22595068.1974   22595064.088
        50.0004         46.0004
 -19371700.29649 -15033700.12948  21149595.4734   21149596.8304   21149595.847
        54.0004         49.0004
 17  2  4  0 17  0.0000000  0  6G06G19G24G12G17G02
 -21496335.93849 -16734340.05848  20581937.0924   20581942.9044   20581936.367
        57.0004         52.0004
 -16548851.06149 -12837952.16248  21723798.5124   21723800.5654   21723799.031
        54.0004         50.0004
 -20091668.56749 -15613107.12348  21073569.9364   21073575.2804   21073569.151
        55.0004         51.0004
 -13557833.68948 -10556834.79047  22458911.9144   22458914.1164   22458911.803
        51.0004         47.0004
 -12232573.93048  -9522608.60747  22611321.5614   22611325.4824   22611320.929
        50.0004         45.0004
 -19461211.60849 -15103449.18648  21132562.0964   21132563.5744   21132562.302
        54.0004         49.0004
 17  2  4  0 17 30.0000000  0  6G06G19G24G12G17G02
 -21500330.87649 -16737452.99548  20581176.6444   20581182.7524   20581176.264
        57.0004         52.0004
 -16495091.55749 -12796061.65348  21734028.2314   21734030.7434   21734029.279
        54.0004         50.0004
 -20106702.52449 -15624821.90348  21070708.7564   21070714.5734   21070708.431
        55.0004         51.0004
 -13631666.08948 -10614366.52247  22444861.8874   22444864.8884   22444861.938
        52.0004         47.0004
 -12147057.46348  -9455972.42647  22627595.0264   22627598.7654   22627594.714
        50.0004         46.0004
 -19550303.42449 -15172871.35848  21115608.0084   21115610.0134   21115608.895
        54.0004         49.0004
 17  2  4  0 18  0.0000000  0  6G06G19G24G12G17G02
 -21503725.73149 -16740098.33348  20580530.7694   20580536.6944   20580529.906
        57.0004         53.0004
 -16441171.30049 -12754045.88148  21744289.2264   21744291.4374   21744289.892
        54.0004         49.0004
 -20121143.58549 -15636074.68948  21067960.9804   21067966.2984   21067960.556
        55.0004         51.0004
 -13705439.90048 -10671852.60247  22430823.7374   22430825.9284   22430822.926
        52.0004         47.0004
 -12061456.98648  -9389270.79847  22643883.6764   22643887.4044   22643883.836
        50.0004         45.0004
 -19638973.29349 -15241964.74548  21098734.7804   21098736.8834   21098735.430
        54.0004         49.0004
 17  2  4  0 18 30.0000000  0  6G06G19G24G12G17G02
 -21506520.38549 -16742275.98248  20579998.9454   20580004.7604   20579998.446
        57.0004         52.0004
 -16387091.78849 -12711906.01348  21754579.9004   21754582.5564   21754580.708
        54.0004         49.0004
 -20134991.01049 -15646864.89748  21065325.7264   21065331.4364   21065325.335
        55.0004         51.0004
 -13779153.62848 -10729291.85747  22416795.5604   22416798.9094   22416795.439
        52.0004         47.0004
 -11975773.78248  -9322504.70447  22660188.9844   22660192.8464   22660188.736
        50.0004         46.0004
 -19727218.29549 -15310727.06648  21081942.7014   21081944.3974   21081943.245
        54.0004         49.0004
 17  2  4  0 19  0.0000000  0  6G06G19G24G12G17G02
 -21508715.20149 -16743986.22848  20579581.3714   20579587.2334   20579580.571
        57.0004         52.0004
 -16332854.20849 -12669642.97948  21764901.0224   21764903.4914   21764901.952
        54.0004         49.0004
 -20148244.58849 -15657192.37048  21062803.7994   21062809.2124   21062803.456
        55.0004         51.0004
 -13852806.38548 -10786683.60847  22402780.6054   22402783.2394   22402780.072
        52.0004         47.0004
 -11890009.61248  -9255675.52147  22676508.9574   22676513.9014   22676509.052
        50.0004         45.0004
 -19815035.68849 -15379156.18748  21065231.3244   21065232.8104   21065232.029
        54.0004         49.0004
 17  2  4  0 19 30.0000000  0  6G06G19G24G12G17G02
 -21510310.28149 -16745229.14548  20579277.6374   20579283.7194   20579277.127
        57.0004         53.0004
 -16278459.86249 -12627257.79148  21775252.0524   21775254.7494   21775253.214
        54.0004         49.0004
 -20160903.33549 -15667056.34048  21060394.9824   21060400.4004   21060394.448
        55.0004         51.0004
 -13926396.82148 -10844026.79947  22388776.6604   22388779.1034   22388776.215
        52.0004         47.0004
 -11804165.62148  -9188784.13647  22692845.3074   22692848.8384   22692845.504
        50.0004         45.0004
 -19902423.05249 -15447250.22248  21048601.9624   21048603.7574   21048602.694
        54.0004         49.0004
 17  2  4  0 20  0.0000000  0  6G06G19G24G12G17G02
 -21511305.83349 -16746004.89648  20579088.2484   20579094.1194   20579087.751
        57.0004         53.0004
 -16223910.44549 -12584751.76648  21785632.6064   21785634.7844   21785633.682
        54.0004         49.0004
 -20172966.88049 -15676456.51148  21058099.4854   21058104.6264   21058098.848
        55.0004         51.0004
 -13999923.67948 -10901320.44347  22374785.6294   22374787.0554   22374784.951
        52.0004         47.0004
 -11718243.38648  -9121831.78847  22709196.0144   22709199.4734   22709195.342
        50.0004         45.0004
 -19989377.80249 -15515007.14948  21032055.2204   21032056.6914   21032055.909
        54.0004         50.0004
 17  2  4  0 20 30.0000000  0  6G06G19G24G12G17G02
 -21511702.13449 -16746313.70248  20579012.9844   20579018.8844   20579012.381
        57.0004         53.0004
 -16169207.17349 -12542125.85448  21796042.0774   21796044.6514   21796043.052
        54.0004         49.0004
 -20184434.76649 -15685392.53548  21055916.9394   21055922.5664   21055916.340
        55.0004         51.0004
 -14073385.89948 -10958563.72347  22360805.5184   22360808.2724   22360805.252
        52.0004         47.0004
 -11632244.20648  -9054819.48047  22725560.8864   22725564.6644   22725561.019
        50.0004         45.0004
 -20075896.96349 -15582424.65748  21015591.0204   21015592.8444   21015591.513
        54.0004         50.0004
 17  2  4  0 21  0.0000000  0  6G06G19G24G12G17G02
 -21511499.43549 -16746155.75048  20579051.3064   20579057.4054   20579050.892
        57.0004         53.0004
 -16114351.41749 -12499381.12848  21806481.0164   21806483.3514   21806481.685
        54.0004         49.0004
 -20195306.00949 -15693863.64348  21053848.1794   21053853.4564   21053847.511
        55.0004         51.0004
 -14146782.35148 -11015755.75047  22346838.7634   22346841.4734   22346838.867
        52.0004         47.0004
 -11546169.92948  -8987748.65547  22741939.6244   22741943.9524   22741940.557
        50.0004         45.0004
 -20161978.01349 -15649500.78448  20999210.7204   20999211.9054   20999211.030
        54.0004         50.0004
 17  2  4  0 21 30.0000000  0  6G06G19G24G12G17G02
 -21510697.99549 -16745531.25148  20579203.8074   20579209.8794   20579203.202
        57.0004         53.0004
 -16059344.67049 -12456518.74348  21816948.3814   21816951.0484   21816949.029
        54.0004         49.0004
 -20205580.55849 -15701869.79548  21051892.9554   21051898.6184   21051892.778
        55.0004         51.0004
 -14220111.29048 -11072895.17347  22332884.4894   22332887.4744   22332884.099
        52.0004         47.0004
 -11460021.67748  -8920620.20247  22758333.6724   22758337.2904   22758333.584
        50.0004         45.0004
 -20247618.59149 -15716233.68748  20982913.7474   20982915.1314   20982914.097
        54.0004         50.0004
 17  2  4  0 22  0.0000000  0  6G06G19G24G12G17G02
 -21509298.17849 -16744440.48248  20579470.6004   20579476.4494   20579469.797
        57.0004         53.0004
 -16004187.72649 -12413539.32248  21827444.1984   21827446.7874   21827445.342
        54.0004         49.0004
 -20215258.21249 -15709410.83848  21050051.5064   21050056.6494   21050050.874
        55.0004         51.0004
 -14293371.63648 -11129981.14447  22318943.7954   22318945.9894   22318943.219
        52.0004         47.0004
 -11373800.94948  -8853435.26147  22774740.2804   22774744.8594   22774740.855
        50.0004         45.0004
 -20332815.97349 -15782621.24148  20966701.1534   20966702.4564   20966701.630
        54.0004         50.0004
 17  2  4  0 22 30.0000000  0  6G06G19G24G12G17G02
 -21507300.26349 -16742883.66448  20579850.4204   20579856.3054   20579849.957
        57.0004         53.0004
 -15948882.00449 -12370443.97448  21837968.7004   21837971.3724   21837969.690
        54.0004         49.0004
 -20224337.66049 -15716485.74448  21048323.6434   21048329.4234   21048323.312
        55.0004         51.0004
 -14366561.37348 -11187012.09947  22305015.7874   22305018.7404   22305015.790
        52.0004         47.0004
 -11287508.79648  -8786194.66247  22791161.7974   22791166.1214   22791161.652
        50.0004         45.0004
 -20417567.50049 -15848661.37348  20950573.7664   20950575.0004   20950573.982
        54.0004         50.0004
 17  2  4  0 23  0.0000000  0  6G06G19G24G12G17G02
 -21504704.66349 -16740861.11848  20580344.4534   20580350.3854   20580343.718
        57.0004         53.0004
 -15893428.89149 -12327233.77648  21848521.4324   21848523.6404   21848522.117
        54.0004         49.0004
 -20232819.32049 -15723094.84648  21046709.8864   21046715.0734   21046709.371
        55.0004         51.0004
 -14439680.58348 -11243988.09447  22291101.7984   22291104.3554   22291101.460
        52.0004         47.0004
 -11201147.26648  -8718900.00547  22807596.2464   22807599.8014   22807595.486
        49.0004         45.0004
 -20501870.64349 -15914352.11848  20934530.8194   20934532.3894   20934531.610
        54.0004         50.0004
 17  2  4  0 23 30.0000000  0  6G06G19G24G12G17G02
 -21501511.64149 -16738373.04848  20580952.0404   20580957.9894   20580951.558
        57.0004         53.0004
 -15837829.59749 -12283909.67048  21859101.4184   21859104.0764   21859102.245
        54.0004         50.0004
 -20240702.25449 -15729237.40348  21045209.6624   21045215.3074   21045208.854
        55.0004         51.0004
 -14512727.09748 -11300907.43847  22277201.3184   22277204.1474   22277201.379
        52.0004         47.0004
 -11114717.00448  -8651551.79647  22824042.9324   22824046.9374   22824043.024
        50.0004         45.0004
 -20585722.75449 -15979691.41448  20918574.3284   20918575.7954   20918574.813
        54.0004         50.0004
 17  2  4  0 24  0.0000000  0  6G06G19G24G12G17G02
 -21497721.96349 -16735420.05548  20581673.3874   20581679.2194   20581672.589
        57.0004         53.0004
 -15782086.07449 -12240473.17948  21869709.0484   21869711.6714   21869709.899
        54.0004         49.0004
 -20247986.63549 -15734913.56148  21043823.7364   21043828.9574   21043823.098
        55.0004         51.0004
 -14585700.02448 -11357769.44847  22263315.1294   22263317.7044   22263315.031
        52.0004         47.0004
 -11028220.08248  -8584151.64047  22840503.0104   22840507.4154   22840502.817
        49.0004         45.0004
 -20669121.53149 -16044677.46048  20902704.1114   20902705.8514   20902704.545
        54.0004         50.0004
 17  2  4  0 24 30.0000000  0  6G06G19G24G12G17G02
 -21493335.68349 -16732002.17348  20582507.9624   20582514.0274   20582507.216
        57.0004         53.0004
 -15726199.44649 -12196925.17448  21880344.2824   21880346.9074   21880344.972
        54.0004         49.0004
 -20254671.87649 -15740122.85148  21042551.6004   21042557.0164   21042551.039
        55.0004         51.0004
 -14658597.88748 -11414572.96247  22249443.0924   22249445.9754   22249442.817
        52.0004         47.0004
 -10941657.27648  -8516700.15147  22856976.1564   22856979.3724   22856975.735
        49.0004         45.0004
 -20752064.24049 -16109308.12648  20886920.5534   20886922.1294   20886921.144
        54.0004         50.0004
 17  2  4  0 25  0.0000000  0  6G06G19G24G12G17G02
 -21488353.43849 -16728119.90648  20583455.9204   20583461.9184   20583455.408
        57.0004         53.0004
 -15670170.89449 -12153266.58148  21891005.8564   21891008.1464   21891006.836
        54.0004         50.0004
 -20260757.74449 -15744865.09548  21041393.0994   21041398.7684   21041392.669
        55.0004         51.0004
 -14731419.32948 -11471316.92347  22235585.6304   22235588.4774   22235585.509
        52.0004         47.0004
 -10855030.47548  -8449198.78947  22873459.4974   22873464.5084   22873459.718
        49.0004         45.0004
 -20834548.46649 -16173581.53248  20871224.3144   20871226.0864   20871224.977
        54.0004         50.0004
 17  2  4  0 25 30.0000000  0  6G06G19G24G12G17G02
 -21482775.69049 -16723773.61048  20584517.4814   20584523.3364   20584516.865
        57.0004         53.0004
 -15614001.35149 -12109498.13248  21901694.7624   21901697.1814   21901695.053
        54.0004         49.0004
 -20266243.81449 -15749139.97048  21040349.5134   21040354.9444   21040348.788
        55.0004         51.0004
 -14804162.93648 -11528000.24747  22221742.9114   22221745.7484   22221742.321
        52.0004         47.0004
 -10768340.97848  -8381648.58347  22889956.8774   22889960.1024   22889956.291
        49.0004         45.0004
 -20916571.68649 -16237495.70948  20855615.9224   20855617.6184   20855616.464
        54.0004         50.0004
 17  2  4  0 26  0.0000000  0  6G06G19G24G12G17G02
 -21476602.99149 -16718963.71548  20585692.1034   20585698.0374   20585691.426
        57.0004         53.0004
 -15557692.54249 -12065621.16048  21912410.1904   21912412.4314   21912410.708
        54.0004         49.0004
 -20271129.64849 -15752947.12748  21039419.7994   21039425.1344   21039419.274
        55.0004         51.0004
 -14876827.35348 -11584621.85647  22207915.0934   22207918.4694   22207914.512
        52.0004         47.0004
 -10681589.81348  -8314050.30647  22906464.9234   22906468.5954   22906464.719
        49.0004         45.0004
 -20998131.19949 -16301048.55848  20840095.6814   20840097.0614   20840096.018
        55.0004         50.0004
 17  2  4  0 26 30.0000000  0  6G06G19G24G12G17G02
 -21469835.79049 -16713690.57148  20586979.6694   20586985.6014   20586978.957
        57.0004         53.0004
 -15501245.48649 -12021636.45948  21923151.2254   21923153.8774   21923152.332
        54.0004         49.0004
 -20275415.02549 -15756286.39048  21038603.9834   21038609.6994   21038603.651
        55.0004         51.0004
 -14949411.30248 -11641180.76347  22194102.9994   22194106.0654   22194103.126
        52.0004         47.0004
 -10594778.21948  -8246404.95047  22922984.9914   22922988.2284   22922984.304
        49.0004         45.0004
 -21079224.66449 -16364238.25048  20824663.9054   20824665.5124   20824664.518
        55.0004         50.0004
 17  2  4  0 27  0.0000000  0  6G06G19G24G12G17G02
 -21462474.77449 -16707954.71748  20588380.5974   20588386.4774   20588380.072
        57.0004         53.0004
 -15444661.64249 -11977545.17848  21933919.0084   21933921.5204   21933919.663
        54.0004         49.0004
 -20279100.23249 -15759157.99448  21037902.9934   21037908.4284   21037902.204
        55.0004         51.0004
 -15021913.60748 -11697676.05947  22180306.7954   22180309.1044   22180306.403
        52.0004         47.0004
 -10507907.94548  -8178713.88347  22939515.4804   22939519.4154   22939514.833
        49.0004         45.0004
 -21159849.78349 -16427063.00048  20809321.4534   20809323.3484   20809322.121
        55.0004         50.0004
 17  2  4  0 27 30.0000000  0  6G06G19G24G12G17G02
 -21454520.48149 -16701756.56648  20589894.0784   20589900.1574   20589893.337
        57.0004         53.0004
 -15387942.24749 -11933348.26748  21944712.2924   21944714.6734   21944713.172
        54.0004         49.0004
 -20282184.72149 -15761561.50648  21037316.1214   21037321.4124   21037315.527
        55.0004         51.0004
 -15094332.57248 -11754106.40747  22166525.7364   22166528.7784   22166525.676
        52.0004         47.0004
 -10420979.97748  -8110977.84147  22956056.7774   22956060.7964   22956057.425
        49.0004         44.0004
 -21240003.98849 -16489520.80748  20794068.8564   20794069.9834   20794069.319
        55.0004         50.0004
 17  2  4  0 28  0.0000000  0  6G06G19G24G12G17G02
 -21445973.46949 -16695096.56148  20591520.6584   20591526.5884   20591520.153
        57.0004         53.0004
 -15331088.20349 -11889046.43548  21955531.3114   21955533.4534   21955532.275
        54.0004         49.0004
 -20284668.21349 -15763496.70348  21036843.4054   21036848.7264   21036842.670
        55.0004         51.0004
 -15166666.99248 -11810470.88548  22152760.8694   22152763.0084   22152760.707
        52.0004         48.0004
 -10333995.69348  -8043197.93847  22972609.6024   22972613.6684   22972609.577
        49.0004         45.0004
 -21319684.75049 -16551609.69848  20778906.1844   20778907.6834   20778906.538
        55.0004         50.0004
 17  2  4  0 28 30.0000000  0  6G06G19G24G12G17G02
 -21436834.47149 -16687975.26548  20593259.8004   20593265.7424   20593259.097
        57.0004         53.0004
 -15274101.00649 -11844640.84848  21966375.7444   21966378.0464   21966376.366
        54.0004         49.0004
 -20286550.79249 -15764963.66148  21036485.2084   21036490.5464   21036484.587
        55.0004         51.0004
 -15238915.28648 -11866768.25048  22139012.5454   22139015.3284   22139011.696
        52.0004         48.0004
 -10246956.32048  -7975375.07547  22989172.7634   22989176.3944   22989172.681
        49.0004         44.0004
 -21398889.65249 -16613327.79048  20763834.2094   20763835.2914   20763834.476
        55.0004         50.0004
 17  2  4  0 29  0.0000000  0  6G06G19G24G12G17G02
 -21427104.17649 -16680393.22048  20595111.3174   20595117.2014   20595110.588
        57.0004         53.0004
 -15216982.09749 -11800132.62948  21977244.9254   21977247.5184   21977245.990
        54.0004         49.0004
 -20287832.53049 -15765962.42848  21036241.4084   21036246.7834   21036240.808
        55.0004         51.0004
 -15311076.21348 -11922997.53648  22125280.8004   22125283.2764   22125280.594
        52.0004         48.0004
 -10159863.40148  -7907510.50547  23005746.8204   23005750.0424   23005746.490
        49.0004         45.0004
 -21477616.52949 -16674673.38748  20748852.7964   20748854.1084   20748853.017
        55.0004         51.0004
 17  2  4  0 29 30.0000000  0  6G06G19G24G12G17G02
 -21416783.15549 -16672350.86848  20597075.4914   20597081.1934   20597074.620
        57.0004         52.0004
 -15159732.37449 -11755522.48048  21988139.3014   21988141.5134   21988140.055
        54.0004         49.0004
 -20288513.07349 -15766492.73548  21036111.7684   21036117.1074   21036110.909
        55.0004         51.0004
 -15383148.12248 -11979157.45448  22111566.0704   22111568.6364   22111565.395
        52.0004         48.0004
 -10072718.05348  -7839605.08947  23022329.6424   23022332.9114   23022329.241
        49.0004         45.0004
 -21555862.77749 -16735644.47348  20733962.8224   20733964.1574   20733963.485
        55.0004         50.0004
 17  2  4  0 30  0.0000000  0  6G06G19G24G12G17G02
 -21405872.13949 -16663848.78248  20599151.4894   20599157.6844   20599151.153
        57.0004         52.0004
 -15102353.13048 -11710811.40448  21999058.3184   21999060.1564   21999058.743
        53.0004         49.0004
 -20288592.49149 -15766554.62948  21036096.3804   21036101.9134   21036096.147
        55.0004         51.0004
 -15455129.69548 -12035246.98848  22097868.3904   22097870.9584   22097868.028
        52.0004         48.0004
  -9985521.34148  -7771659.63147  23038923.2254   23038926.5414   23038922.596
        49.0004         44.0004
 -21633625.94449 -16796239.13148  20719165.1234   20719166.4144   20719165.500
        55.0004         50.0004
 17  2  4  0 30 30.0000000  0  6G06G19G24G12G17G02
 -21394371.99949 -16654887.63448  20601339.8684   20601346.1914   20601339.333
        57.0004         52.0004
 -15044845.58448 -11666000.35248  22010001.4544   22010003.9234   22010002.392
        53.0004         49.0004
 -20288070.63249 -15766147.99648  21036196.0384   21036201.4154   21036195.621
        55.0004         51.0004
 -15527019.97148 -12091265.37548  22084187.5564   22084190.3674   22084187.915
        52.0004         48.0004
  -9898274.63348  -7703675.23947  23055525.0394   23055529.2164   23055524.942
        49.0004         45.0004
 -21710903.76849 -16856455.59648  20704459.3064   20704460.8884   20704459.759
        55.0004         50.0004
 17  2  4  0 31  0.0000000  0  6G06G19G24G12G17G02
 -21382283.43349 -16645467.97648  20603640.4484   20603646.2984   20603639.929
        57.0004         52.0004
 -14987211.06348 -11621090.35548  22020968.8514   22020971.5424   22020969.881
        53.0004         49.0004
 -20286947.58949 -15765272.91348  21036409.6234   21036415.0524   21036409.050
        55.0004         51.0004
 -15598817.11848 -12147211.19648  22070525.2384   22070528.3414   22070524.975
        52.0004         48.0004
  -9810979.35448  -7635652.97747  23072136.8174   23072140.3534   23072136.357
        49.0004         44.0004
 -21787694.00749 -16916292.12648  20689846.5814   20689848.0874   20689847.246
        55.0004         51.0004
 17  2  4  0 31 30.0000000  0  6G06G19G24G12G17G02
 -21369607.17649 -16635590.37748  20606052.5994   20606058.6064   20606052.098
        57.0004         52.0004
 -14929450.90148 -11576082.46148  22031960.2684   22031962.5454   22031960.683
        53.0004         49.0004
 -20285223.62949 -15763929.58248  21036737.7804   21036743.4754   21036737.324
        55.0004         51.0004
 -15670519.47448 -12203083.15048  22056880.5854   22056884.0584   22056880.746
        52.0004         48.0004
  -9723636.59948  -7567593.72547  23088758.2594   23088761.7364   23088756.480
        49.0004         44.0004
 -21863994.25449 -16975746.85048  20675327.1934   20675328.7444   20675327.749
        55.0004         51.0004
 17  2  4  0 32  0.0000000  0  6G06G19G24G12G17G02
 -21356344.05449 -16625255.48048  20608576.5174   20608582.5604   20608575.794
        57.0004         52.0004
 -14871566.13448 -11530977.46648  22042975.2654   22042977.8834   22042976.169
        53.0004         49.0004
 -20282898.50249 -15762117.80648  21037180.3424   21037185.5934   21037179.937
        55.0004         51.0004
 -15742125.79348 -12258880.27248  22043254.6704   22043257.9154   22043254.149
        53.0004         48.0004
  -9636247.71148  -7499498.55547  23105387.1224   23105391.2754   23105386.164
        49.0004         44.0004
 -21939802.30449 -17034818.04748  20660901.7514   20660902.7614   20660901.813
        55.0004         50.0004
 17  2  4  0 32 30.0000000  0  6G06G19G24G12G17G02
 -21342494.96449 -16614463.98548  20611211.8874   20611217.8174   20611211.278
        57.0004         52.0004
 -14813557.89048 -11485776.25948  22054014.0344   22054016.4234   22054014.952
        53.0004         49.0004
 -20279972.50049 -15759837.81648  21037737.1684   21037742.5114   21037736.576
        55.0004         51.0004
 -15813634.60848 -12314601.41648  22029646.3874   22029649.9214   22029646.191
        53.0004         48.0004
  -9548813.87848  -7431368.32147  23122025.0294   23122028.7344   23122024.488
        49.0004         44.0004
 -22015115.82149 -17093503.89248  20646569.7584   20646571.2374   20646570.212
        55.0004         51.0004
 17  2  4  0 33  0.0000000  0  6G06G19G24G12G17G02
 -21328060.67449 -16603216.48848  20613958.7124   20613964.6374   20613958.183
        57.0004         52.0004
 -14755427.18248 -11440479.62748  22065076.0824   22065078.2064   22065076.817
        53.0004         48.0004
 -20276445.67049 -15757089.65048  21038408.0854   21038413.7464   21038407.800
        55.0004         51.0004
 -15885044.23248 -12370245.26448  22016057.8414   22016060.8864   22016057.572
        53.0004         48.0004
  -9461335.96748  -7363203.77047  23138670.6634   23138675.7964   23138671.572
        49.0004         44.0004
 -22089932.12849 -17151802.29048  20632332.5824   20632333.9494   20632332.980
        55.0004         50.0004
 17  2  4  0 33 30.0000000  0  6G06G19G24G12G17G02
 -21313042.15449 -16591513.74848  20616816.5964   20616822.6674   20616815.840
        57.0004         52.0004
 -14697175.58048 -11395088.78648  22076160.6584   22076163.2534   22076161.878
        53.0004         49.0004
 -20272317.97949 -15753873.27648  21039193.5554   21039199.2904   21039193.458
        55.0004         51.0004
 -15956353.37748 -12425810.82448  22002487.9394   22002491.2204   22002488.045
        53.0004         48.0004
  -9373815.07248  -7295005.71647  23155326.6234   23155330.1334   23155326.460
        48.0004         44.0004
 -22164249.42949 -17209711.85248  20618190.4224   20618191.9934   20618191.153
        55.0004         51.0004
 17  2  4  0 34  0.0000000  0  6G06G19G24G12G17G02
 -21297440.25549 -16579356.43348  20619785.6934   20619791.4714   20619785.156
        57.0004         52.0004
 -14638804.19548 -11349604.61448  22087268.8084   22087271.1904   22087269.322
        53.0004         48.0004
 -20267590.01949 -15750189.16948  21040093.5714   21040098.8344   21040092.884
        55.0004         51.0004
 -16027560.68048 -12481297.02448  21988937.9654   21988940.9554   21988937.543
        53.0004         48.0004
  -9286253.14548  -7226775.67747  23171988.4794   23171993.0834   23171988.143
        48.0004         44.0004
 -22238065.51849 -17267230.86548  20604143.6864   20604145.1334   20604144.231
        55.0004         51.0004
 17  2  4  0 34 30.0000000  0  6G06G19G24G12G17G02
 -21281256.04549 -16566745.36248  20622865.4134   20622871.3674   20622864.564
        57.0004         52.0004
 -14580313.89548 -11304027.77948  22098399.0444   22098401.4514   22098399.953
        53.0004         48.0004
 -20262261.94949 -15746037.43748  21041107.0574   21041112.8254   21041106.710
        55.0004         51.0004
 -16098664.37148 -12536702.48148  21975407.6254   21975410.5934   21975407.566
        53.0004         48.0004
  -9198650.88948  -7158514.24547  23188659.6104   23188663.8984   23188658.738
        48.0004         44.0004
 -22311378.16149 -17324357.58848  20590192.7514   20590194.5654   20590193.394
        55.0004         51.0004
 17  2  4  0 35  0.0000000  0  6G06G19G24G12G17G02
 -21264490.21749 -16553681.08448  20626055.8124   20626061.5874   20626055.103
        57.0004         52.0004
 -14521705.96348 -11258359.28248  22109551.7934   22109553.9854   22109552.567
        53.0004         48.0004
 -20256333.35049 -15741417.76148  21042235.2644   21042241.0444   21042234.976
        55.0004         51.0004
 -16169662.99648 -12592026.07248  21961896.8424   21961899.4594   21961896.235
        53.0004         48.0004
  -9111008.92648  -7090221.84847  23205336.3834   23205340.7214   23205337.191
        48.0004         44.0004
 -22384184.51249 -17381089.78448  20576338.3544   20576339.5924   20576338.720
        55.0004         51.0004
 17  2  4  0 35 30.0000000  0  6G06G19G24G12G17G02
 -21247143.92049 -16540164.49348  20629356.5844   20629362.5934   20629355.917
        57.0004         52.0004
 -14462981.56248 -11212600.03348  22120726.9504   22120728.8124   22120727.238
        53.0004         48.0004
 -20249804.72649 -15736330.53248  21043477.9604   21043483.4694   21043477.232
        55.0004         51.0004
 -16240555.05448 -12647266.62448  21948406.5214   21948409.4874   21948406.325
        53.0004         48.0004
  -9023329.43048  -7021900.21547  23222021.1644   23222025.5094   23222021.325
        48.0004         44.0004
 -22456483.05549 -17437426.30048  20562580.4114   20562581.6434   20562580.812
        55.0004         51.0004
 17  2  4  0 36  0.0000000  0  6G06G19G24G12G17G02
 -21229218.18449 -16526196.39148  20632767.8764   20632773.8404   20632767.396
        57.0004         52.0004
 -14404142.10448 -11166751.12848  22131923.4584   22131926.0654   22131924.267
        53.0004         48.0004
 -20242676.79849 -15730776.31348  21044834.1994   21044839.7404   21044833.677
        55.0004         51.0004
 -16311338.85848 -12702422.82348  21934936.7764   21934940.1454   21934936.330
        53.0004         48.0004
  -8935613.16348  -6953549.91947  23238713.1634   23238717.5504   23238713.809
        48.0004         44.0004
 -22528271.20749 -17493365.10948  20548919.3574   20548921.0904   20548919.856
        55.0004         51.0004
 17  2  4  0 36 30.0000000  0  6G06G19G24G12G17G02
 -21210713.92549 -16511777.49148  20636289.1894   20636294.9644   20636288.619
        57.0004         52.0004
 -14345188.31148 -11120813.12748  22143141.4924   22143144.4944   22143143.005
        53.0004         48.0004
 -20234949.82049 -15724755.30748  21046304.8654   21046310.0904   21046304.243
        55.0004         51.0004
 -16382013.00648 -12757493.57248  21921487.7804   21921490.9284   21921487.597
        53.0004         49.0004
  -8847861.28748  -6885171.88647  23255412.1144   23255415.3014   23255412.701
        48.0004         44.0004
 -22599546.72349 -17548904.46248  20535356.1584   20535357.6744   20535356.854
        55.0004         51.0004
 17  2  4  0 37  0.0000000  0  6G06G19G24G12G17G02
 -21191632.28249 -16496908.68248  20639920.1124   20639926.0654   20639919.561
        57.0004         52.0004
 -14286121.40748 -11074787.00148  22154382.3744   22154384.8004   22154383.234
        53.0004         48.0004
 -20226623.64949 -15718267.39848  21047889.0684   21047894.5944   21047888.546
        55.0004         51.0004
 -16452576.18948 -12812477.86148  21908059.8774   21908063.0234   21908060.016
        53.0004         48.0004
  -8760074.60048  -6816766.73447  23272118.5374   23272121.7584   23272117.908
        48.0004         44.0004
 -22670308.00949 -17604043.11048  20521890.6674   20521891.9434   20521891.252
        55.0004         51.0004
 17  2  4  0 37 30.0000000  0  6G06G19G24G12G17G02
 -21171974.29149 -16481590.77148  20643660.9494   20643666.9394   20643660.459
        57.0004         52.0004
 -14226942.50648 -11028673.60448  22165643.3064   22165646.6604   22165644.109
        53.0004         48.0004
 -20217698.90249 -15711313.06848  21049587.5334   21049592.9424   21049586.952
        55.0004         51.0004
 -16523026.50248 -12867374.19548  21894653.8304   21894656.8284   21894653.986
        53.0004         49.0004
  -8672254.17448  -6748335.28247  23288829.1604   23288832.9894   23288829.342
        48.0004         44.0004
 -22740553.04349 -17658779.49048  20508524.0054   20508524.9324   20508524.043
        55.0004         51.0004
 17  2  4  0 38  0.0000000  0  6G06G19G24G12G17G02
 -21151741.04949 -16465824.61048  20647511.2504   20647517.1224   20647510.678
        57.0004         52.0004
 -14167652.70948 -10982473.78548  22176926.0024   22176928.6924   22176926.818
        53.0004         48.0004
 -20208175.97749 -15703892.62548  21051399.5574   21051405.2194   21051399.059
        55.0004         51.0004
 -16593362.68248 -12922181.59348  21881269.6404   21881272.4044   21881269.651
        53.0004         48.0004
  -8584401.65548  -6679878.82947  23305547.2344   23305551.5014   23305546.815
        48.0004         44.0004
 -22810279.01549 -17713111.39648  20495255.1214   20495256.4294   20495255.694
        55.0004         51.0004
 17  2  4  0 38 30.0000000  0  6G06G19G24G12G17G02
 -21130933.63849 -16449611.04448  20651470.7804   20651476.7034   20651470.145
        57.0004         52.0004
 -14108253.42348 -10936188.65748  22188229.4364   22188231.4484   22188230.090
        53.0004         48.0004
 -20198055.10149 -15696006.24648  21053325.3224   21053331.2984   21053325.000
        55.0004         51.0004
 -16663583.08848 -12976898.77848  21867906.6894   21867909.5794   21867906.830
        53.0004         49.0004
  -8496517.80848  -6611397.96347  23322270.2364   23322274.6554   23322270.478
        48.0004         43.0004
 -22879484.02649 -17767037.36748  20482085.9174   20482087.2514   20482086.191
        55.0004         51.0004
 17  2  4  0 39  0.0000000  0  6G06G19G24G12G17G02
 -21109553.19249 -16432950.95848  20655539.1574   20655545.3204   20655538.854
        57.0004         52.0004
 -14048745.26048 -10889818.68548  22199552.9914   22199556.1714   22199554.200
        53.0004         48.0004
 -20187336.80649 -15687654.34948  21055365.1384   21055370.7994   21055364.735
        55.0004         51.0004
 -16733685.97448 -13031524.38848  21854566.5964   21854569.6704   21854566.609
        53.0004         49.0004
  -8408603.80948  -6542893.59547  23339000.0424   23339004.0584   23339000.406
        48.0004         43.0004
 -22948166.17249 -17820555.90748  20469016.1524   20469017.4264   20469016.546
        56.0004         51.0004
 17  2  4  0 39 30.0000000  0  6G06G19G24G12G17G02
 -21087600.91749 -16415845.29148  20659716.7424   20659722.6774   20659716.352
        57.0004         52.0004
 -13989129.44348 -10843364.83248  22210897.8724   22210900.8704   22210898.541
        53.0004         48.0004
 -20176021.43049 -15678837.19548  21057518.3264   21057523.9524   21057517.906
        55.0004         51.0004
 -16803669.74948 -13086057.19048  21841248.9864   21841251.8824   21841248.917
        53.0004         49.0004
  -8320660.61248  -6474366.49047  23355734.9084   23355739.7634   23355734.901
        48.0004         43.0004
 -23016323.28549 -17873665.33448  20456046.2184   20456047.6744   20456046.667
        56.0004         51.0004
 17  2  4  0 40  0.0000000  0  6G06G19G24G12G17G02
 -21065078.01349 -16398294.97948  20664002.5844   20664008.6394   20664001.987
        57.0004         52.0004
 -13929407.28448 -10796828.11448  22222262.8144   22222265.4564   22222263.400
        53.0004         48.0004
 -20164110.00349 -15669555.58548  21059785.1524   21059790.8114   21059784.573
        55.0004         51.0004
 -16873532.61748 -13140495.77448  21827954.5464   21827957.8244   21827954.528
        53.0004         49.0004
  -8232689.28848  -6405817.46147  23372475.6614   23372479.5304   23372475.473
        48.0004         43.0004
 -23083953.43549 -17926364.13748  20443176.6604   20443177.8694   20443177.257
        56.0004         51.0004
 17  2  4  0 40 30.0000000  0  6G06G19G24G12G17G02
 -21041985.53149 -16380300.83548  20668396.9994   20668403.1104   20668396.356
        57.0004         52.0004
 -13869579.25148 -10750208.89048  22233647.4384   22233650.1684   22233648.224
        53.0004         48.0004
 -20151602.26849 -15659809.32048  21062165.4554   21062170.8364   21062164.975
        55.0004         51.0004
 -16943272.78848 -13194838.74948  21814683.6984   21814686.6274   21814683.503
        53.0004         49.0004
  -8144690.61348  -6337247.12147  23389221.4734   23389226.0244   23389220.947
        48.0004         43.0004
 -23151054.49449 -17978650.65948  20430407.7894   20430408.9734   20430408.111
        56.0004         51.0004
 17  2  4  0 41  0.0000000  0  6G06G19G24G12G17G02
 -21018324.82649 -16361863.92448  20672899.5774   20672905.5754   20672898.832
        57.0004         52.0004
 -13809647.25648 -10703508.66248  22245052.2934   22245054.7384   22245053.368
        53.0004         48.0004
 -20138499.08249 -15649599.06148  21064658.5614   21064664.4204   21064658.333
        55.0004         51.0004
 -17012889.32248 -13249085.38648  21801436.0094   21801438.8474   21801435.685
        53.0004         49.0004
  -8056665.95448  -6268656.52747  23405972.4174   23405975.8044   23405972.184
        48.0004         43.0004
 -23217624.48849 -18030523.36948  20417739.8894   20417741.3474   20417740.436
        56.0004         51.0004
 17  2  4  0 41 30.0000000  0  6G06G19G24G12G17G02
 -20994097.19349 -16342985.25248  20677509.8374   20677515.8904   20677509.246
        57.0004         52.0004
 -13749612.02848 -10656727.99548  22256476.3134   22256479.1484   22256477.150
        53.0004         48.0004
 -20124801.38049 -15638925.54948  21067265.3924   21067270.8494   21067264.919
        55.0004         51.0004
 -17082380.51548 -13303234.35348  21788212.3804   21788215.3774   21788212.045
        53.0004         49.0004
  -7968616.66147  -6200046.74947  23422728.3964   23422731.5464   23422727.474
        47.0004         43.0004
 -23283661.44249 -18081980.72848  20405173.5014   20405174.6704   20405174.023
        56.0004         51.0004
 17  2  4  0 42  0.0000000  0  6G06G19G24G12G17G02
 -20969303.77949 -16323665.71148  20682227.9954   20682233.9114   20682227.238
        57.0004         52.0004
 -13689474.24948 -10609867.41648  22267920.5534   22267922.6824   22267921.500
        53.0004         48.0004
 -20110509.32749 -15627788.90148  21069985.2384   21069990.4744   21069984.790
        55.0004         51.0004
 -17151744.33248 -13357284.07248  21775012.8984   21775015.3604   21775012.659
        53.0004         49.0004
  -7880543.40047  -6131418.28947  23439487.3764   23439491.0454   23439486.957
        47.0004         43.0004
 -23349163.60649 -18133021.36548  20392708.5924   20392710.0594   20392709.120
        56.0004         51.0004
 17  2  4  0 42 30.0000000  0  6G06G19G24G12G17G02
 -20943946.00049 -16303906.40448  20687053.3954   20687059.4824   20687052.680
        57.0004         52.0004
 -13629235.08148 -10562927.83348  22279383.8904   22279386.2474   22279384.713
        53.0004         48.0004
 -20095624.00849 -15616189.96748  21072817.5404   21072822.9814   21072817.090
        55.0004         51.0004
 -17220979.34548 -13411233.41948  21761837.9274   21761840.8804   21761837.646
        53.0004         49.0004
  -7792447.24647  -6062772.00047  23456251.3014   23456256.4024   23456250.822
        47.0004         43.0004
 -23414128.81949 -18183643.60048  20380346.4964   20380347.7524   20380346.732
        56.0004         51.0004
 17  2  4  0 43  0.0000000  0  6G06G19G24G12G17G02
 -20918025.10049 -16283708.30448  20691985.9844   20691991.8084   20691985.406
        57.0004         52.0004
 -13568895.88848 -10515910.30448  22290865.6984   22290868.3514   22290867.192
        53.0004         48.0004
 -20080145.25949 -15604128.62448  21075763.1494   21075768.6454   21075762.702
        55.0004         51.0004
 -17290083.87548 -13465081.09748  21748688.1364   21748690.0074   21748687.296
        53.0004         49.0004
  -7704329.21147  -5994108.66047  23473019.4854   23473023.9654   23473019.197
        47.0004         43.0004
 -23478555.25049 -18233845.99948  20368086.3614   20368087.8034   20368086.626
        56.0004         51.0004
 17  2  4  0 43 30.0000000  0  6G06G19G24G12G17G02
 -20891542.31449 -16263072.36948  20697025.4784   20697031.4504   20697025.084
        57.0004         52.0004
 -13508457.46748 -10468815.46148  22302366.9284   22302369.5704   22302368.038
        53.0004         48.0004
 -20064074.68849 -15591606.11848  21078821.3414   21078826.8154   21078820.792
        55.0004         51.0004
 -17359055.99348 -13518825.59748  21735562.6954   21735565.7374   21735562.462
        53.0004         49.0004
  -7616190.43847  -5925429.16147  23489792.4664   23489796.4554   23489792.420
        47.0004         43.0004
 -23542440.97849 -18283627.07348  20355929.2344   20355930.6934   20355929.753
        56.0004         51.0004
 17  2  4  0 44  0.0000000  0  6G06G19G24G12G17G02
 -20864499.15949 -16241999.78848  20702171.7614   20702177.5204   20702171.083
        57.0004         52.0004
 -13447920.89848 -10421644.14148  22313886.8964   22313889.1664   22313887.260
        52.0004         48.0004
 -20047412.17949 -15578622.36248  21081992.0574   21081997.7194   21081991.371
        55.0004         51.0004
 -17427894.49248 -13572465.97848  21722463.3004   21722465.5674   21722463.151
        53.0004         49.0004
  -7528031.70847  -5856734.09447  23506568.6944   23506572.0114   23506567.611
        47.0004         42.0004
 -23605783.94549 -18332985.21948  20343875.6034   20343876.8894   20343876.105
        56.0004         51.0004
 17  2  4  0 44 30.0000000  0  6G06G19G24G12G17G02
 -20836896.88349 -16220491.52448  20707424.2384   20707430.2234   20707423.680
        57.0004         52.0004
 -13387286.96748 -10374396.94848  22325424.9614   22325427.8224   22325425.851
        52.0004         48.0004
 -20030158.99649 -15565178.33948  21085275.1854   21085280.7044   21085274.704
        55.0004         51.0004
 -17496597.33149 -13626000.64648  21709389.3594   21709392.2774   21709389.312
        54.0004         49.0004
  -7439854.01447  -5788024.26047  23523348.1154   23523352.0434   23523347.891
        47.0004         43.0004
 -23668582.31149 -18381919.00048  20331925.3074   20331926.6124   20331925.747
        56.0004         51.0004
 17  2  4  0 45  0.0000000  0  6G06G19G24G12G17G02
 -20808736.91749 -16198548.69548  20712782.9044   20712788.8444   20712782.110
        57.0004         52.0004
 -13326557.29648 -10327075.15248  22336981.6964   22336984.4904   22336982.221
        52.0004         48.0004
 -20012315.81749 -15551274.58448  21088670.7974   21088676.2954   21088670.358
        55.0004         51.0004
 -17565162.91649 -13679428.36848  21696342.0304   21696344.7894   21696342.044
        54.0004         49.0004
  -7351658.45647  -5719300.52447  23540130.9534   23540134.8874   23540130.574
        47.0004         43.0004
 -23730834.92149 -18430427.51248  20320079.0054   20320080.2854   20320079.705
        56.0004         51.0004
 17  2  4  0 45 30.0000000  0  6G06G19G24G12G17G02
 -20780020.68149 -16176172.41148  20718247.1464   20718253.2674   20718246.610
        57.0004         52.0004
 -13265732.37248 -10279679.13648  22348555.7244   22348558.5604   22348556.684
        52.0004         48.0004
 -19993883.21349 -15536911.54248  21092178.2854   21092184.1284   21092177.667
        55.0004         51.0004
 -17633589.66149 -13732747.90048  21683320.7754   21683323.5534   21683320.562
        54.0004         49.0004
  -7263445.78547  -5650563.43947  23556917.2884   23556920.5434   23556917.675
        47.0004         42.0004
 -23792539.26349 -18478508.80348  20308337.0844   20308338.4194   20308337.599
        56.0004         51.0004
 17  2  4  0 46  0.0000000  0  6G06G19G24G12G17G02
 -20750749.65449 -16153363.82648  20723817.6264   20723823.2764   20723817.008
        57.0004         52.0004
 -13204813.14048 -10232209.63348  22360148.8264   22360151.3514   22360149.706
        52.0004         48.0004
 -19974862.14649 -15522089.95348  21095798.0114   21095803.4054   21095797.336
        55.0004         51.0004
 -17701875.50049 -13785957.63648  21670326.2384   21670329.0934   21670326.028
        54.0004         49.0004
  -7175217.20347  -5581813.95247  23573706.2684   23573710.4564   23573706.909
        47.0004         42.0004
 -23853693.40449 -18526161.36948  20296699.8094   20296701.0424   20296700.469
        56.0004         51.0004
 17  2  4  0 46 30.0000000  0  6G06G19G24G12G17G02
 -20720925.21149 -16130124.00548  20729492.7894   20729498.8054   20729492.285
        57.0004         52.0004
 -13143800.62948 -10184667.44848  22371758.7204   22371761.2234   22371759.924
        52.0004         48.0004
 -19955253.59149 -15506810.57748  21099529.4054   21099535.0594   21099528.722
        55.0004         51.0004
 -17770019.05649 -13839056.50448  21657359.1644   21657361.5354   21657358.737
        54.0004         49.0004
  -7086973.73747  -5513052.85647  23590499.2004   23590503.3444   23590500.039
        47.0004         43.0004
 -23914295.87049 -18573384.05548  20285167.5324   20285168.8374   20285168.125
        56.0004         51.0004
 17  2  4  0 47  0.0000000  0  6G06G19G24G12G17G02
 -20690548.89949 -16106454.15648  20735273.1784   20735279.0914   20735272.456
        57.0004         52.0004
 -13082695.87248 -10137053.38148  22383386.9054   22383389.7104   22383388.090
        52.0004         48.0004
 -19935058.00649 -15491073.77648  21103372.3134   21103378.2044   21103372.004
        55.0004         51.0004
 -17838018.74349 -13892043.26348  21644419.3784   21644421.6514   21644418.769
        54.0004         49.0004
  -6998715.85147  -5444280.53847  23607293.9744   23607298.0044   23607293.766
        47.0004         43.0004
 -23974345.02149 -18620175.58548  20273740.5074   20273741.9154   20273740.989
        56.0004         51.0004
 17  2  4  0 47 30.0000000  0  6G06G19G24G12G17G02
 -20659622.12949 -16082355.37848  20741158.5034   20741164.1864   20741157.791
        57.0004         52.0004
 -13021499.67348 -10089368.05847  22395032.0674   22395034.3384   22395032.818
        52.0004         47.0004
 -19914276.33249 -15474880.28048  21107326.9874   21107332.6394   21107326.469
        55.0004         51.0004
 -17905872.49049 -13944916.30148  21631507.1924   21631509.6974   21631506.828
        54.0004         49.0004
  -6910444.70247  -5375497.89147  23624091.2024   23624096.2194   23624090.811
        47.0004         43.0004
 -24033839.11449 -18666534.60248  20262419.3024   20262420.5354   20262419.854
        56.0004         52.0004
 17  2  4  0 48  0.0000000  0  6G06G19G24G12G17G02
 -20628146.52649 -16057828.94248  20747147.9734   20747153.9944   20747147.302
        57.0004         52.0004
 -12960213.20248 -10041612.39547  22406694.1934   22406697.2424   22406694.924
        52.0004         47.0004
 -19892909.72349 -15458230.99248  21111393.1134   21111398.6914   21111392.614
        55.0004         51.0004
 -17973578.68349 -13997674.36248  21618622.8934   21618625.6034   21618622.635
        54.0004         49.0004
  -6822161.43847  -5306705.79247  23640891.7544   23640895.5504   23640891.667
        47.0004         42.0004
 -24092776.14449 -18712459.54848  20251203.7914   20251205.1974   20251204.383
        56.0004         52.0004
 17  2  4  0 48 30.0000000  0  6G06G19G24G12G17G02
 -20596123.54349 -16032875.97348  20753241.8704   20753247.7114   20753241.437
        56.0004         52.0004
 -12898837.36948  -9993787.09847  22418374.2804   22418376.9924   22418374.973
        52.0004         47.0004
 -19870959.06549 -15441126.60448  21115570.2574   21115575.9884   21115569.827
        55.0004         51.0004
 -18041135.51849 -14050316.04548  21605767.5144   21605770.0014   21605767.090
        54.0004         49.0004
  -6733866.67847  -5237904.73247  23657693.3854   23657697.9024   23657693.405
        47.0004         42.0004
 -24151154.56149 -18757949.21248  20240094.7054   20240096.0864   20240095.253
        56.0004         52.0004
 17  2  4  0 49  0.0000000  0  6G06G19G24G12G17G02
 -20563554.71449 -16007497.67048  20759439.6284   20759445.3114   20759438.826
        56.0004         52.0004
 -12837372.63848  -9945892.53147  22430070.2454   22430072.8904   22430071.536
        52.0004         47.0004
 -19848425.44049 -15423567.95048  21119858.0704   21119863.7584   21119857.750
        55.0004         51.0004
 -18108541.15549 -14102839.90548  21592940.0274   21592943.4144   21592940.330
        54.0004         49.0004
  -6645561.31847  -5169095.43247  23674496.3084   23674501.4714   23674497.078
        47.0004         42.0004
 -24208972.60449 -18803002.21948  20229092.3404   20229093.9544   20229092.916
        56.0004         52.0004
 17  2  4  0 49 30.0000000  0  6G06G19G24G12G17G02
 -20530441.67649 -15981695.31248  20765740.7094   20765746.5444   20765739.992
        56.0004         52.0004
 -12775820.58548  -9897929.92847  22441783.5254   22441786.1274   22441784.287
        52.0004         47.0004
 -19825309.55549 -15405555.58248  21124256.7394   21124262.5904   21124256.535
        55.0004         51.0004
 -18175793.96749 -14155244.68848  21580142.6144   21580145.1624   21580142.621
        54.0004         49.0004
  -6557246.35947  -5100278.64247  23691303.9554   23691306.3394   23691303.009
        47.0004         43.0004
 -24266228.63849 -18847617.29648  20218197.1264   20218198.0884   20218197.335
        56.0004         52.0004
 17  2  4  0 50  0.0000000  0  6G06G19G24G12G17G02
 -20496786.00749 -15955470.12348  20772145.0924   20772151.1474   20772144.451
        56.0004         52.0004
 -12714182.08748  -9849899.95747  22453512.5684   22453515.5914   22453514.178
        52.0004         47.0004
 -19801612.55449 -15387090.40448  21128766.3244   21128771.9094   21128765.944
        55.0004         51.0004
 -18242892.30049 -14207529.09448  21567374.3924   21567376.8324   21567373.756
        54.0004         49.0004
  -6468922.69047  -5031455.06647  23708111.0304   23708114.5674   23708110.909
        47.0004         43.0004
 -24322921.47549 -18891793.51448  20207408.5544   20207410.1644   20207409.029
        56.0004         52.0004
 17  2  4  0 50 30.0000000  0  6G06G19G24G12G17G02
 -20462589.32749 -15928823.36648  20778652.6474   20778658.3594   20778651.884
        56.0004         52.0004
 -12652457.95748  -9801803.25747  22465258.5404   22465261.2314   22465259.863
        52.0004         47.0004
 -19777335.23349 -15368173.02748  21133386.1654   21133391.9224   21133385.449
        55.0004         51.0004
 -18309834.32049 -14259691.69748  21554635.2924   21554638.1354   21554635.320
        54.0004         49.0004
  -6380591.08347  -4962625.30047  23724919.1654   23724923.2524   23724919.193
        47.0004         42.0004
 -24379049.15249 -18935529.35148  20196727.8574   20196729.1044   20196728.406
        56.0004         52.0004
 17  2  4  0 51  0.0000000  0  6G06G19G24G12G17G02
 -20427853.20149 -15901756.26048  20785262.5234   20785268.6654   20785261.954
        56.0004         52.0004
 -12590648.82248  -9753640.32847  22477020.4964   22477022.8154   22477020.692
        52.0004         47.0004
 -19752479.07949 -15348804.61148  21138116.0524   21138121.8114   21138115.598
        55.0004         50.0004
 -18376618.15949 -14311731.04348  21541927.0614   21541929.4864   21541926.696
        54.0004         49.0004
  -6292252.64247  -4893790.21347  23741730.1014   23741733.4184   23741730.333
        47.0004         42.0004
 -24434610.03249 -18978823.53248  20186154.9214   20186156.4504   20186155.383
        56.0004         52.0004
 17  2  4  0 51 30.0000000  0  6G06G19G24G12G17G02
 -20392579.30949 -15874270.11948  20791974.8514   20791981.0804   20791974.301
        56.0004         52.0004
 -12528755.67748  -9705411.93747  22488798.0234   22488800.9054   22488798.768
        52.0004         47.0004
 -19727045.08549 -15328985.93648  21142956.0634   21142961.6554   21142955.761
        55.0004         50.0004
 -18443241.84649 -14363645.59848  21529249.1284   21529251.4584   21529249.099
        54.0004         49.0004
  -6203907.88547  -4824950.18947  23758541.3774   23758545.5384   23758541.980
        47.0004         42.0004
 -24489602.42349 -19021674.73448  20175690.2944   20175691.5124   20175690.747
        56.0004         52.0004
 17  2  4  0 52  0.0000000  0  6G06G19G24G12G17G02
 -20356769.37449 -15846366.27848  20798789.2834   20798795.5034   20798788.692
        56.0004         52.0004
 -12466779.70348  -9657118.99147  22500591.5344   22500595.1264   22500593.075
        52.0004         47.0004
 -19701034.35549 -15308717.85548  21147905.7964   21147911.5974   21147905.323
        55.0004         50.0004
 -18509703.77749 -14415434.11048  21516601.5254   21516604.2234   21516601.666
        54.0004         49.0004
  -6115557.79447  -4756106.01847  23775354.1004   23775357.4754   23775354.059
        47.0004         42.0004
 -24544025.04649 -19064081.95348  20165334.1174   20165335.3384   20165334.494
        56.0004         52.0004
 17  2  4  0 52 30.0000000  0  6G06G19G24G12G17G02
 -20320424.96449 -15818045.96448  20805705.6494   20805711.4124   20805704.862
        56.0004         52.0004
 -12404721.39648  -9608761.90347  22512401.2134   22512404.3644   22512401.688
        52.0004         47.0004
 -19674448.01549 -15288001.23748  21152964.9694   21152970.6784   21152964.563
        55.0004         50.0004
 -18576002.05449 -14467095.09748  21503985.6704   21503988.1944   21503985.369
        54.0004         50.0004
  -6027203.09647  -4687258.27347  23792167.9664   23792171.6094   23792166.088
        47.0004         42.0004
 -24597876.34449 -19106043.99248  20155086.3764   20155087.6774   20155086.880
        56.0004         52.0004
 17  2  4  0 53  0.0000000  0  6G06G19G24G12G17G02
 -20283547.90249 -15789310.59848  20812723.2054   20812728.9644   20812722.340
        56.0004         52.0004
 -12342581.71548  -9560341.40347  22524226.0734   22524228.5804   22524226.721
        52.0004         47.0004
 -19647286.97449 -15266836.80548  21158133.5774   21158139.3404   21158133.316
        55.0004         50.0004
 -18642135.08149 -14518627.31948  21491400.6524   21491403.4314   21491400.507
        54.0004         49.0004
  -5938845.14147  -4618407.98647  23808980.2144   23808984.8704   23808981.467
        47.0004         42.0004
 -24651154.89549 -19147559.73248  20144947.8154   20144949.0274   20144948.388
        56.0004         52.0004
 17  2  4  0 53 30.0000000  0  6G06G19G24G12G17G02
 -20246139.82249 -15760161.45048  20819841.7504   20819847.4194   20819840.904
        56.0004         52.0004
 -12280361.77248  -9511858.35047  22536066.0344   22536069.2324   22536067.223
        52.0004         47.0004
 -19619552.54949 -15245225.58048  21163411.4244   21163416.9594   21163410.892
        55.0004         50.0004
 -18708100.92849 -14570029.26548  21478848.0664   21478850.4884   21478847.525
        54.0004         50.0004
  -5850484.06447  -4549555.29147  23825796.3564   23825799.5644   23825796.178
        46.0004         42.0004
 -24703859.03449 -19188627.88148  20134918.5734   20134919.6254   20134919.226
        56.0004         52.0004
 17  2  4  0 54  0.0000000  0  7G06G19G24G25G12G17G02
 -20208202.45849 -15730599.87548  20827060.7754   20827066.9184   20827060.216
        56.0004         52.0004
 -12218062.10848  -9463313.19247  22547921.1094   22547923.7474   22547922.036
        52.0004         47.0004
 -19591245.87749 -15223168.45148  21168797.9154   21168803.6974   21168797.431
        55.0004         50.0004
   -193990.30648   -110800.57746  24855342.3964   24855347.8444   24855342.853
        51.0004         38.0004
 -18773897.61649 -14621299.40548  21466327.0594   21466330.1524   21466326.776
        54.0004         50.0004
  -5762121.00647  -4480701.00547  23842610.5994   23842614.9424   23842610.589
        46.0004         42.0004
 -24755987.46649 -19229247.42648  20124998.7384   20125000.1694   20124998.984
        56.0004         52.0004
 17  2  4  0 54 30.0000000  0  7G06G19G24G25G12G17G02
 -20169737.68149 -15700627.32448  20834380.4884   20834386.5254   20834379.887
        56.0004         52.0004
 -12155683.92048  -9414706.84647  22559791.8504   22559794.4434   22559791.796
        52.0004         47.0004
 -19562368.73549 -15200666.79648  21174293.0274   21174298.7024   21174292.582
        55.0004         50.0004
   -288021.17847   -184071.34146  24837446.6644   24837455.1384   24837447.332
        46.0004         38.0004
 -18839523.31749 -14672436.30348  21453839.1234   21453841.5544   21453838.733
        54.0004         50.0004
  -5673756.70347  -4411845.76746  23859425.2594   23859430.9924   23859424.319
        46.0004         41.0004
 -24807538.61849 -19269417.14348  20115188.7474   20115190.1854   20115189.391
        56.0004         52.0004
 17  2  4  0 55  0.0000000  0  7G06G19G24G25G12G17G02
 -20130747.12949 -15670245.08148  20841800.1674   20841806.0454   20841799.339
        56.0004         52.0004
 -12093227.61448  -9366039.61447  22571676.5924   22571679.3734   22571677.887
        52.0004         47.0004
 -19532921.60149 -15177720.99148  21179896.7914   21179902.5044   21179896.134
        55.0004         50.0004
   -382099.70347   -257379.25946  24819546.2804   24819552.9024   24819544.538
        44.0004         38.0004
 -18904976.12449 -14723438.47648  21441383.7514   21441386.3594   21441383.698
        54.0004         50.0004
  -5585391.75747  -4342990.02347  23876240.7364   23876245.9064   23876240.585
        46.0004         42.0004
 -24858511.09949 -19309135.94348  20105489.0554   20105490.5874   20105489.671
        56.0004         52.0004
 17  2  4  0 55 30.0000000  0  7G06G19G24G25G12G17G02
 -20091232.61949 -15639454.55948  20849319.4724   20849325.4604   20849318.975
        56.0004         52.0004
 -12030694.31548  -9317312.40247  22583576.8074   22583579.5574   22583577.254
        52.0004         47.0004
 -19502906.34649 -15154332.49848  21185608.3834   21185614.0984   21185607.804
        55.0004         50.0004
   -476224.83147   -330723.50246  24801635.2374   24801642.7664   24801635.137
        43.0004         38.0004
 -18970254.50949 -14774304.73848  21428961.9614   21428964.4554   21428961.559
        54.0004         50.0004
  -5497027.14647  -4274134.56146  23893055.3654   23893060.8794   23893055.840
        46.0004         41.0004
 -24908903.73749 -19348402.91648  20095899.9714   20095900.9534   20095900.150
        56.0004         52.0004
 17  2  4  0 56  0.0000000  0  7G06G19G24G25G12G17G02
 -20051195.99149 -15608257.19048  20856938.0154   20856944.0894   20856937.538
        56.0004         52.0004
 -11968084.67548  -9268525.69847  22595490.9504   22595493.7114   22595491.496
        52.0004         47.0004
 -19472324.00849 -15130502.11948  21191427.9654   21191433.9354   21191427.534
        55.0004         50.0004
   -570395.44747   -404103.16746  24783714.2334   24783722.8994   24783713.672
        43.0004         38.0004
 -19035356.22749 -14825033.33448  21416573.0324   21416575.7994   21416573.057
        54.0004         50.0004
  -5408663.70247  -4205279.99847  23909872.5524   23909876.4564   23909871.334
        46.0004         42.0004
 -24958714.98249 -19387216.86048  20086420.9924   20086422.1974   20086421.589
        56.0004         52.0004
 17  2  4  0 56 30.0000000  0  7G06G19G24G25G12G17G02
 -20010639.04049 -15576654.37848  20864655.9534   20864661.7554   20864655.072
        56.0004         52.0004
 -11905399.83048  -9219680.39247  22607419.0844   22607422.2944   22607420.005
        52.0004         47.0004
 -19441175.85749 -15106230.84748  21197355.3394   21197361.0264   21197355.124
        55.0004         50.0004
   -664610.34347   -477517.34946  24765786.5654   24765792.9054   24765786.149
        43.0004         38.0004
 -19100279.86849 -14875623.16848  21404218.5874   21404221.3324   21404218.323
        54.0004         50.0004
  -5320302.14247  -4136426.90447  23926686.1394   23926690.8884   23926684.756
        46.0004         42.0004
 -25007943.72949 -19425576.91248  20077053.2374   20077054.2464   20077053.421
        56.0004         52.0004
 17  2  4  0 57  0.0000000  0  7G06G19G24G25G12G17G02
 -19969563.59749 -15544647.54548  20872472.2284   20872478.1484   20872471.644
        56.0004         52.0004
 -11842640.35048  -9170776.93347  22619361.9344   22619365.0094   22619362.214
        52.0004         47.0004
 -19409463.29649 -15081519.77948  21203389.8834   21203395.6704   21203389.708
        55.0004         50.0004
   -758868.20447   -550965.01546  24747849.1534   24747856.6644   24747848.967
        43.0004         39.0004
 -19165023.16949 -14926072.48448  21391898.4604   21391901.1704   21391898.234
        54.0004         50.0004
  -5231943.09547  -4067575.77747  23943499.7094   23943504.5094   23943501.114
        46.0004         42.0004
 -25056588.28249 -19463481.74548  20067796.2924   20067797.6074   20067796.823
        56.0004         52.0004
 17  2  4  0 57 30.0000000  0  7G06G19G24G25G12G17G02
 -19927971.57749 -15512238.18648  20880386.9824   20880392.8394   20880386.278
        56.0004         51.0004
 -11779807.06448  -9121815.96347  22631318.6184   22631321.6564   22631319.577
        52.0004         47.0004
 -19377188.14349 -15056370.32748  21209532.0694   21209537.6454   21209531.394
        54.0004         50.0004
   -853167.92147   -624445.30746  24729904.0714   24729912.3034   24729904.719
        43.0004         39.0004
 -19229584.49049 -14976379.99448  21379612.7324   21379615.5954   21379612.746
        54.0004         50.0004
  -5143587.48847  -3998727.32247  23960315.0344   23960318.8834   23960313.398
        46.0004         42.0004
 -25104647.56549 -19500930.52148  20058650.9174   20058652.0914   20058651.600
        56.0004         52.0004
 17  2  4  0 58  0.0000000  0  7G06G19G24G25G12G17G02
 -19885864.80049 -15479427.71348  20888399.4124   20888405.5834   20888398.947
        56.0004         51.0004
 -11716900.83748  -9072798.14947  22643288.8774   22643292.1724   22643290.267
        52.0004         47.0004
 -19344351.57349 -15030783.40848  21215780.2194   21215785.9334   21215779.701
        54.0004         50.0004
   -947508.23247   -697957.20746  24711952.5114   24711959.5454   24711951.872
        43.0004         38.0004
 -19293961.75949 -15026544.09348  21367362.3534   21367364.8164   21367362.056
        55.0004         50.0004
  -5055235.96347  -3929882.04446  23977126.6134   23977131.3854   23977126.725
        46.0004         41.0004
 -25152120.33749 -19537922.27948  20049617.0874   20049618.4434   20049617.462
        56.0004         52.0004
 17  2  4  0 58 30.0000000  0  7G06G19G24G25G12G17G02
 -19843245.11949 -15446217.58048  20896509.9084   20896515.6204   20896509.386
        56.0004         51.0004
 -11653922.31648  -9023724.00747  22655273.5384   22655276.3764   22655273.771
        51.0004         47.0004
 -19310954.72749 -15004759.91248  21222135.7344   21222141.1684   21222135.070
        54.0004         50.0004
  -1041887.80147   -771499.70746  24693993.4954   24693999.1084   24693992.614
        43.0004         39.0004
 -19358153.12349 -15076563.32848  21355147.0234   21355149.7544   21355146.763
        55.0004         50.0004
  -4966889.34247  -3861040.58046  23993938.4794   23993944.4284   23993938.152
        46.0004         41.0004
 -25199005.37249 -19574456.06148  20040695.2744   20040696.3734   20040695.861
        56.0004         52.0004
 17  2  4  0 59  0.0000000  0  7G06G19G24G25G12G17G02
 -19800114.44049 -15412609.26548  20904717.4804   20904723.4154   20904716.776
        56.0004         51.0004
 -11590872.10048  -8974593.99947  22667271.9324   22667275.1044   22667273.038
        51.0004         47.0004
 -19276999.00449 -14978300.92748  21228597.2714   21228602.8264   21228596.799
        54.0004         50.0004
  -1136305.42047   -845071.86346  24676024.3824   24676031.8374   24676024.080
        43.0004         39.0004
 -19422156.53949 -15126436.11048  21342967.7414   21342970.3324   21342967.253
        55.0004         50.0004
  -4878548.09547  -3792203.31846  24010750.2284   24010755.7354   24010750.847
        46.0004         41.0004
 -25245301.35349 -19610530.82948  20031885.5054   20031886.7184   20031885.978
        56.0004         52.0004
 17  2  4  0 59 30.0000000  0  7G06G19G24G25G12G17G02
 -19756474.81849 -15378604.37248  20913021.7394   20913027.6634   20913020.993
        56.0004         51.0004
 -11527751.32148  -8925409.00047  22679283.1204   22679286.0834   22679284.546
        51.0004         47.0004
 -19242486.35649 -14951407.97348  21235164.3704   21235170.5384   21235164.216
        54.0004         50.0004
  -1230760.02247   -918672.82846  24658051.1584   24658057.3544   24658051.942
        43.0004         39.0004
 -19485970.30149 -15176161.11048  21330823.9604   21330826.8544   21330823.871
        55.0004         50.0004
  -4790213.05447  -3723370.87946  24027559.6784   24027564.3084   24027559.648
        46.0004         41.0004
 -25291007.33349 -19646145.86648  20023187.7044   20023188.9994   20023188.323
        56.0004         52.0004
 17  2  4  1  0  0.0000000  0  7G06G19G24G25G12G17G02
 -19712327.98449 -15344204.24548  20921422.6964   20921428.4504   20921421.962
        56.0004         51.0004
 -11464560.53748  -8876169.46147  22691307.9434   22691311.2804   22691309.454
        51.0004         47.0004
 -19207418.00949 -14924082.00848  21241838.2494   21241843.7164   21241837.896
        54.0004         50.0004
  -1325250.10647   -992301.41946  24640070.2484   24640077.7314   24640070.515
        43.0004         39.0004
 -19549592.48349 -15225736.82748  21318717.4434   21318719.8444   21318717.019
        55.0004         50.0004
  -4701884.98547  -3654543.91546  24044367.2404   24044371.9874   24044367.157
        46.0004         41.0004
 -25336121.99449 -19681300.13348  20014602.7084   20014604.1484   20014603.205
        56.0004         52.0004
 17  2  4  1  0 30.0000000  0  8G06G05G19G24G25G12G17G02
 -19667676.08149 -15309410.56348  20929919.6034   20929925.4934   20929919.101
        56.0004         51.0004
    -78714.14959    -50592.37457  25104744.1015   25104751.6695   25104743.313
        55.0004         42.0004
 -11401300.70748  -8826876.10947  22703346.1334   22703349.6014   22703347.546
        51.0004         47.0004
 -19171795.72749 -14896324.41048  21248616.8574   21248622.4804   21248616.478
        54.0004         50.0004
  -1419774.57147  -1065956.81746  24622082.2834   24622090.2864   24622082.288
        44.0004         39.0004
 -19613021.27549 -15275161.84948  21306647.0134   21306649.8274   21306646.725
        55.0004         50.0004
  -4613564.42947  -3585722.77047  24061175.0624   24061179.7814   24061175.578
        46.0004         42.0004
 -25380644.19849 -19715992.75148  20006130.3894   20006131.6234   20006130.928
        56.0004         52.0004
 17  2  4  1  1  0.0000000  0  8G06G05G19G24G25G12G17G02
 -19622520.90149 -15274224.71348  20938512.1624   20938518.4894   20938511.746
        56.0004         51.0004
   -165417.66048   -118153.35447  25088244.2504   25088252.1734   25088244.157
        50.0004         43.0004
 -11337972.40748  -8777529.40947  22715397.5754   22715400.1064   22715397.905
        51.0004         46.0004
 -19135620.53349 -14868135.96048  21255500.5924   21255506.2684   21255500.134
        54.0004         50.0004
  -1514332.01747  -1139637.90946  24604089.3414   24604095.0214   24604088.731
        44.0004         39.0004
 -19676254.50249 -15324434.48548  21294614.2014   21294616.9874   21294614.050
        55.0004         50.0004
  -4525252.32947  -3516908.20246  24077979.1394   24077985.4524   24077979.730
        46.0004         41.0004
 -25424572.94749 -19750222.93248  19997771.0044   19997772.2314   19997771.527
        56.0004         52.0004
 17  2  4  1  1 30.0000000  0  8G06G05G19G24G25G12G17G02
 -19576864.53649 -15238648.33048  20947200.3514   20947206.5634   20947199.817
        56.0004         51.0004
   -252255.05948   -185818.70447  25071718.9944   25071727.7014   25071719.068
        48.0004         42.0004
 -11274576.34148  -8728129.90147  22727461.4514   22727463.9684   22727461.879
        51.0004         47.0004
 -19098894.58649 -14839518.36448  21262489.4564   21262495.1794   21262489.265
        54.0004         50.0004
  -1608921.29847  -1213343.81146  24586089.7954   24586097.3374   24586089.579
        44.0004         39.0004
 -19739290.37449 -15373553.33848  21282618.8524   21282621.4814   21282618.904
        55.0004         50.0004
  -4436948.98747  -3448100.48146  24094783.5214   24094787.7674   24094783.295
        46.0004         41.0004
 -25467906.67749 -19783989.46448  19989524.9594   19989525.9924   19989525.463
        57.0004         52.0004
 17  2  4  1  2  0.0000000  0  8G06G05G19G24G25G12G17G02
 -19530708.94549 -15202682.94248  20955983.4414   20955989.6824   20955982.873
        56.0004         51.0004
   -339223.40847   -253586.07147  25055169.8024   25055177.5504   25055169.568
        47.0004         42.0004
 -11211113.38148  -8678678.27647  22739537.7454   22739540.2594   22739537.838
        51.0004         46.0004
 -19061619.07449 -14810472.53948  21269582.6804   21269588.3164   21269582.175
        54.0004         50.0004
  -1703540.92347  -1287073.35146  24568083.0464   24568091.3834   24568084.129
        44.0004         39.0004
 -19802126.76949 -15422516.75348  21270661.5414   21270664.0574   21270661.330
        55.0004         50.0004
  -4348655.47047  -3379300.40347  24111584.9244   24111590.2494   24111585.150
        46.0004         42.0004
 -25510644.76449 -19817291.85848  19981392.1604   19981393.2164   19981392.639
        57.0004         52.0004
 17  2  4  1  2 30.0000000  0  8G06G05G19G24G25G12G17G02
 -19484056.17149 -15166330.14048  20964861.3424   20964867.5194   20964860.758
        56.0004         51.0004
   -426320.90747   -321454.05146  25038595.0744   25038602.6194   25038594.725
        46.0004         41.0004
 -11147584.27848  -8629175.10947  22751627.1054   22751629.6934   22751627.700
        51.0004         46.0004
 -19023795.81149 -14780999.89748  21276780.1794   21276786.2774   21276779.989
        54.0004         50.0004
  -1798189.80247  -1360825.68646  24550071.1974   24550078.1544   24550072.574
        44.0004         39.0004
 -19864761.90549 -15471323.34848  21258742.5334   21258745.2014   21258742.231
        55.0004         50.0004
  -4260372.21247  -3310508.33246  24128385.5974   24128389.8434   24128385.088
        46.0004         41.0004
 -25552786.16749 -19850129.30248  19973373.1194   19973374.0304   19973373.372
        57.0004         52.0004
 17  2  4  1  3  0.0000000  0  8G06G05G19G24G25G12G17G02
 -19436908.09549 -15129591.38848  20973833.4094   20973839.3954   20973832.783
        56.0004         51.0004
   -513545.00547   -389420.68246  25021997.2414   25022004.6704   25021997.922
        45.0004         40.0004
 -11083989.36848  -8579620.66347  22763728.5954   22763731.8784   22763729.824
        51.0004         46.0004
 -18985426.18749 -14751101.50848  21284081.6324   21284087.5344   21284081.309
        54.0004         50.0004
  -1892866.36647  -1434599.58746  24532056.7174   24532063.5124   24532057.479
        44.0004         39.0004
 -19927193.66949 -15519971.46348  21246862.1504   21246864.8754   21246861.976
        55.0004         50.0004
  -4172100.00047  -3241724.85247  24145182.7594   24145187.4674   24145183.161
        46.0004         42.0004
 -25594329.75349 -19882500.91648  19965467.4724   19965468.5524   19965468.007
        57.0004         52.0004
 17  2  4  1  3 30.0000000  0  8G06G05G19G24G25G12G17G02
 -19389266.95349 -15092468.43048  20982899.0134   20982905.1984   20982898.554
        56.0004         51.0004
   -600893.33447   -457484.12546  25005376.9974   25005383.7084   25005376.444
        45.0004         40.0004
 -11020329.78748  -8530015.82347  22775842.9054   22775845.2494   22775843.814
        51.0004         46.0004
 -18946512.20849 -14720778.94948  21291486.8384   21291492.5244   21291486.384
        54.0004         50.0004
  -1987569.38247  -1508394.09846  24514034.2344   24514040.9954   24514034.926
        44.0004         40.0004
 -19989420.33149 -15568459.76148  21235020.6574   21235023.3224   21235020.469
        55.0004         50.0004
  -4083839.56747  -3172950.56446  24161977.4374   24161984.1004   24161976.703
        46.0004         41.0004
 -25635274.70149 -19914406.06748  19957675.8264   19957677.1284   19957676.386
        57.0004         52.0004
 17  2  4  1  4  0.0000000  0  8G06G05G19G24G25G12G17G02
 -19341134.63149 -15054962.73448  20992058.3514   20992064.4234   20992057.696
        56.0004         51.0004
   -688363.36047   -525642.41246  24988729.9604   24988738.2424   24988730.319
        44.0004         39.0004
 -10956605.93548  -8480360.90347  22787969.1534   22787971.5294   22787970.335
        51.0004         46.0004
 -18907055.59849 -14690033.56048  21298995.4134   21299000.9174   21298994.973
        54.0004         50.0004
  -2082297.45147  -1582208.13146  24496007.7944   24496015.6344   24496007.384
        44.0004         39.0004
 -20051439.79049 -15616786.60548  21223218.8024   21223221.5314   21223218.721
        55.0004         50.0004
  -3995591.11047  -3104185.60246  24178772.9094   24178777.5664   24178771.236
        45.0004         41.0004
 -25675620.04049 -19945843.98648  19949998.2614   19949999.4364   19949998.879
        57.0004         52.0004
 17  2  4  1  4 30.0000000  0  8G06G05G19G24G25G12G17G02
 -19292513.29249 -15017075.98648  21001310.7964   21001316.7394   21001310.003
        56.0004         51.0004
   -775952.30647   -593893.36046  24972062.4084   24972070.7914   24972062.569
        44.0004         39.0004
 -10892818.76348  -8430656.64247  22800107.4514   22800110.7894   22800108.696
        50.0004         46.0004
 -18867057.77049 -14658866.44848  21306606.7964   21306612.5024   21306606.158
        54.0004         50.0004
  -2177049.25347  -1656040.66446  24477977.8924   24477985.1284   24477978.363
        44.0004         40.0004
 -20113250.07149 -15664950.45048  21211456.6544   21211459.2884   21211456.466
        55.0004         50.0004
  -3907355.87147  -3035430.93046  24195561.7024   24195567.4324   24195561.068
        45.0004         41.0004
 -25715364.25149 -19976813.49448  19942435.3744   19942436.4644   19942435.819
        57.0004         52.0004
 17  2  4  1  5  0.0000000  0  8G06G05G19G24G25G12G17G02
 -19243404.93349 -14978809.74148  21010655.7364   21010661.9914   21010654.928
        56.0004         51.0004
   -863657.86147   -662235.22846  24955372.3034   24955378.3884   24955371.018
        43.0004         38.0004
 -10828968.78648  -8380903.45247  22812257.9184   22812260.7184   22812258.627
        50.0004         46.0004
 -18826520.62649 -14627279.08148  21314320.6994   21314326.5704   21314320.372
        54.0004         50.0004
  -2271823.46047  -1729890.63746  24459942.6674   24459950.5804   24459943.443
        44.0004         40.0004
 -20174849.27849 -15712949.82548  21199734.9524   21199737.4744   21199734.440
        55.0004         50.0004
  -3819133.98347  -2966686.67446  24212349.5424   24212356.1464   24212349.477
        45.0004         41.0004
 -25754507.16049 -20007314.45448  19934986.6014   19934987.7674   19934987.095
        57.0004         52.0004
 17  2  4  1  5 30.0000000  0  7G06G19G24G25G12G17G02
 -19193811.68349 -14940165.65848  21020093.0354   21020099.2134   21020092.436
        56.0004         51.0004
 -10765056.79548  -8331101.92647  22824418.9714   22824422.3234   22824420.854
        50.0004         46.0004
 -18785446.06449 -14595272.95248  21322137.0494   21322142.6184   21322136.446
        54.0004         50.0004
  -2366618.72547  -1803757.03746  24441902.0174   24441910.6184   24441903.590
        44.0004         40.0004
 -20236235.20749 -15760783.01248  21188053.4564   21188056.1274   21188053.343
        55.0004         50.0004
  -3730926.25147  -2897953.45146  24229134.9284   24229138.9604   24229135.493
        45.0004         41.0004
 -25793047.48149 -20037345.86548  19927652.8494   19927653.8544   19927653.115
        57.0004         52.0004
 17  2  4  1  6  0.0000000  0  7G06G19G24G25G12G17G02
 -19143735.65949 -14901145.38848  21029622.0914   21029628.2684   21029621.535
        56.0004         51.0004
 -10701083.22448  -8281252.42647  22836593.6704   22836595.6424   22836593.895
        50.0004         46.0004
 -18743835.73449 -14562849.34048  21330054.8174   21330061.0044   21330054.522
        54.0004         50.0004
  -2461433.64847  -1877638.76146  24423859.3644   24423868.8344   24423860.827
        44.0004         40.0004
 -20297406.25149 -15808448.75348  21176413.2054   21176415.6634   21176412.864
        55.0004         51.0004
  -3642733.31147  -2829231.78146  24245918.6324   24245923.4514   24245917.974
        45.0004         41.0004
 -25830984.32849 -20066907.03248  19920433.5294   19920434.7544   19920434.028
        57.0004         52.0004
 17  2  4  1  6 30.0000000  0  7G06G19G24G25G12G17G02
 -19093178.93249 -14861750.54248  21039242.6744   21039248.8654   21039242.053
        56.0004         51.0004
 -10637048.94348  -8231355.60447  22848778.6104   22848781.2594   22848779.649
        50.0004         46.0004
 -18701691.14349 -14530009.42448  21338074.8834   21338080.6344   21338074.401
        54.0004         50.0004
  -2556266.66147  -1951534.56746  24405815.2104   24405820.6394   24405815.318
        45.0004         40.0004
 -20358360.17149 -15855945.30848  21164813.8094   21164816.5244   21164813.530
        55.0004         51.0004
  -3554555.59347  -2760521.93246  24262696.6904   24262702.9734   24262695.634
        45.0004         41.0004
 -25868316.98249 -20095997.39548  19913329.2654   19913330.5004   19913329.779
        57.0004         53.0004
 17  2  4  1  7  0.0000000  0  8G06G05G19G24G25G12G17G02
 -19042143.60649 -14821982.76248  21048954.4354   21048960.6054   21048953.766
        56.0004         51.0004
    -95080.89148    -65246.31946  24888401.5024   24888407.1164   24888401.585
        52.0004         39.0004
 -10572954.45548  -8181411.87747  22860975.1534   22860978.4344   22860976.797
        50.0004         46.0004
 -18659014.11049 -14496754.61948  21346196.0924   21346201.7164   21346195.359
        54.0004         50.0004
  -2651116.55047  -2025443.54046  24387766.8804   24387774.6384   24387765.880
        45.0004         40.0004
 -20419094.97149 -15903271.11848  21153256.3614   21153259.1084   21153256.175
        55.0004         50.0004
  -3466393.62047  -2691824.31746  24279474.1404   24279477.7514   24279474.574
        45.0004         40.0004
 -25905044.59649 -20124616.29548  19906340.1524   19906341.4844   19906340.824
        57.0004         53.0004
 17  2  4  1  7 30.0000000  0  8G06G05G19G24G25G12G17G02
 -18990631.93049 -14781843.80148  21058756.6754   21058762.7664   21058756.317
        55.0004         51.0004
   -183332.55347   -134013.63746  24871607.7524   24871612.9194   24871608.487
        47.0004         37.0004
 -10508800.61648  -8131421.90247  22873183.7204   22873185.7464   22873183.946
        50.0004         45.0004
 -18615807.08049 -14463086.82748  21354418.1294   21354423.9134   21354417.884
        54.0004         50.0004
  -2745981.80447  -2099364.46646  24369712.6884   24369719.7924   24369712.458
        45.0004         40.0004
 -20479608.84149 -15950424.77948  21141740.7024   21141743.4894   21141740.781
        55.0004         51.0004
  -3378248.13647  -2623139.61347  24296247.8104   24296253.0384   24296247.553
        46.0004         42.0004
 -25941166.41249 -20152763.15448  19899466.6294   19899467.6694   19899466.939
        57.0004         53.0004
 17  2  4  1  8  0.0000000  0  8G06G05G19G24G25G12G17G02
 -18938646.05949 -14741335.34148  21068649.5464   21068655.4714   21068648.498
        55.0004         51.0004
   -271686.34957   -202860.52756  24854791.4665   24854800.1395   24854792.719
        43.0004         36.0004
 -10444587.96048  -8081386.09947  22885403.3424   22885405.3594   22885403.748
        50.0004         45.0004
 -18572071.84549 -14429007.44348  21362740.4934   21362746.5424   21362740.610
        54.0004         50.0004
  -2840861.19647  -2173296.43046  24351658.0394   24351665.4754   24351657.528
        45.0004         40.0004
 -20539899.70649 -15997404.66748  21130267.8504   21130270.4564   21130267.654
        55.0004         51.0004
  -3290119.86047  -2554468.30947  24313018.7544   24313023.6234   24313019.918
        46.0004         42.0004
 -25976681.64349 -20180437.34948  19892708.1324   19892709.4734   19892708.672
        57.0004         53.0004
 17  2  4  1  8 30.0000000  0  8G06G05G19G24G25G12G17G02
 -18886188.00649 -14700458.94048  21078632.0284   21078637.8144   21078631.355
        55.0004         51.0004
   -360139.39647   -271784.74946  24837960.0294   24837969.3254   24837959.518
        42.0004         37.0004
 -10380317.03748  -8031304.89247  22897632.9234   22897636.5014   22897633.881
        50.0004         45.0004
 -18527809.65649 -14394517.44548  21371163.3714   21371169.2514   21371163.010
        54.0004         50.0004
  -2935752.91747  -2247237.98746  24333601.8654   24333607.2014   24333601.971
        45.0004         40.0004
 -20599964.63049 -16044208.49748  21118838.1724   21118840.7494   21118837.764
        55.0004         51.0004
  -3202009.03847  -2485810.65146  24329786.9424   24329790.4224   24329785.976
        46.0004         41.0004
 -26011589.34349 -20207638.14248  19886065.4624   19886066.5484   19886065.869
        57.0004         53.0004
 17  2  4  1  9  0.0000000  0  8G06G05G19G24G25G12G17G02
 -18833260.05449 -14659216.38548  21088703.9304   21088709.7954   21088703.197
        55.0004         51.0004
   -448689.39047   -340784.61946  24821109.4594   24821116.4504   24821109.964
        42.0004         38.0004
 -10315988.19148  -7981178.53947  22909875.0644   22909877.6544   22909874.810
        50.0004         45.0004
 -18483022.60649 -14359618.46448  21379685.9844   21379691.7174   21379685.644
        54.0004         50.0004
  -3030655.77847  -2321188.22646  24315542.1124   24315548.4874   24315541.794
        45.0004         40.0004
 -20659802.82649 -16090835.65948  21107451.1334   21107453.6504   21107450.857
        55.0004         51.0004
  -3113916.51847  -2417167.09746  24346547.6354   24346556.0084   24346547.575
        46.0004         41.0004
 -26045889.15149 -20234365.25448  19879538.2874   19879539.5894   19879538.906
        57.0004         53.0004
 17  2  4  1  9 30.0000000  0  8G06G05G19G24G25G12G17G02
 -18779864.38649 -14617609.37748  21098864.5554   21098870.6274   21098863.786
        55.0004         51.0004
   -537333.76647   -409857.99646  24804241.5564   24804248.4424   24804242.547
        43.0004         38.0004
 -10251602.45248  -7931007.86347  22922126.2454   22922129.6744   22922128.293
        50.0004         45.0004
 -18437712.74049 -14324312.09948  21388308.2874   21388314.2544   21388308.027
        54.0004         50.0004
  -3125568.28647  -2395145.99046  24297480.1764   24297486.5024   24297479.825
        45.0004         40.0004
 -20719412.18149 -16137284.50248  21096107.8494   21096110.3344   21096107.792
        55.0004         51.0004
  -3025842.82047  -2348538.38447  24363309.4134   24363312.9074   24363310.145
        46.0004         42.0004
 -26079580.34349 -20260618.12548  19873127.2304   19873128.3694   19873127.522
        57.0004         53.0004
 17  2  4  1 10  0.0000000  0  8G06G05G19G24G25G12G17G02
 -18726003.18749 -14575639.62048  21109113.9864   21109120.1604   21109113.442
        55.0004         51.0004
   -626069.73346   -479002.70346  24787355.2264   24787360.2234   24787354.097
        41.0004         36.0004
 -10187160.44948  -7880793.34747  22934389.6464   22934392.8864   22934390.563
        50.0004         45.0004
 -18391882.01549 -14288599.87048  21397029.5024   21397035.5204   21397029.183
        54.0004         50.0004
  -3220488.88847  -2469110.05446  24279416.5384   24279424.0564   24279417.514
        45.0004         40.0004
 -20778790.18149 -16183553.07048  21084808.5304   21084811.2234   21084808.366
        55.0004         51.0004
  -2937788.36047  -2279924.57147  24380065.6834   24380071.0154   24380065.978
        46.0004         42.0004
 -26112662.00849 -20286396.03548  19866831.9474   19866833.0964   19866832.495
        57.0004         53.0004
 17  2  4  1 10 30.0000000  0  8G06G05G19G24G25G12G17G02
 -18671678.74249 -14533308.89148  21119451.7154   21119458.0414   21119450.933
        55.0004         51.0004
   -714894.47847   -548216.57046  24770454.5504   24770459.3944   24770452.925
        42.0004         38.0004
 -10122662.79048  -7830535.45547  22946663.4654   22946665.9624   22946664.670
        50.0004         46.0004
 -18345532.68449 -14252483.53148  21405849.7454   21405855.6054   21405849.074
        54.0004         50.0004
  -3315416.24047  -2543079.38346  24261352.9344   24261359.7614   24261352.826
        45.0004         40.0004
 -20837935.03349 -16229639.96348  21073553.6174   21073556.0784   21073553.292
        55.0004         51.0004
  -2849753.81047  -2211326.28246  24396816.8764   24396821.3654   24396816.182
        46.0004         40.0004
 -26145133.68449 -20311698.62748  19860652.7064   19860653.9404   19860653.174
        57.0004         53.0004
 17  2  4  1 11  0.0000000  0  8G06G05G19G24G25G12G17G02
 -18616893.17649 -14490618.84748  21129877.0844   21129883.1444   21129876.640
        55.0004         51.0004
   -803805.31447   -617497.69146  24753532.9994   24753541.0204   24753533.511
        43.0004         38.0004
 -10058109.87648  -7780234.51147  22958947.6314   22958950.5504   22958948.511
        50.0004         46.0004
 -18298666.09149 -14215964.13348  21414768.4954   21414773.9474   21414767.897
        54.0004         50.0004
  -3410348.73247  -2617052.71746  24243288.0844   24243294.5764   24243288.025
        45.0004         40.0004
 -20896844.59549 -16275543.51248  21062343.7044   21062345.9724   21062343.269
        55.0004         51.0004
  -2761739.34847  -2142743.66347  24413567.5214   24413572.4774   24413566.888
        46.0004         42.0004
 -26176994.92949 -20336525.56148  19854589.9834   19854590.7184   19854590.173
        57.0004         53.0004
 17  2  4  1 11 30.0000000  0  8G06G05G19G24G25G12G17G02
 -18561648.69349 -14447571.20948  21140389.7644   21140395.8744   21140389.217
        55.0004         51.0004
   -892800.38247   -686844.32246  24736598.6124   24736604.7864   24736598.067
        43.0004         39.0004
  -9993502.27048  -7729890.95547  22971241.6864   22971244.3324   22971242.446
        50.0004         45.0004
 -18251284.78849 -14179043.66048  21423784.8144   21423790.4974   21423783.912
        54.0004         49.0004
  -3505284.90647  -2691028.93346  24225221.4254   24225229.1264   24225221.821
        45.0004         40.0004
 -20955516.74749 -16321262.06548  21051178.6774   21051181.0744   21051178.258
        55.0004         51.0004
  -2673745.43647  -2074177.08346  24430312.4084   24430315.6714   24430311.163
        45.0004         41.0004
 -26208244.73649 -20360876.05148  19848643.2294   19848644.3374   19848643.648
        57.0004         53.0004
 17  2  4  1 12  0.0000000  0  8G06G05G19G24G25G12G17G02
 -18505947.60549 -14404167.77148  21150989.3664   21150995.3344   21150988.412
        55.0004         51.0004
   -981877.10647   -756254.55146  24719646.5004   24719655.3244   24719646.774
        43.0004         38.0004
  -9928840.58548  -7679505.24447  22983546.8044   22983549.3424   22983547.124
        50.0004         46.0004
 -18203390.46249 -14141723.42848  21432898.8854   21432904.4224   21432898.172
        54.0004         49.0004
  -3600223.22747  -2765006.80846  24207155.9704   24207162.1624   24207156.390
        45.0004         40.0004
 -21013949.29149 -16366793.91248  21040059.0964   21040061.8054   21040059.034
        55.0004         51.0004
  -2585773.10147  -2005627.22147  24447051.4174   24447057.2204   24447051.273
        46.0004         42.0004
 -26238882.64749 -20384749.73648  19842813.0804   19842813.9864   19842813.411
        57.0004         53.0004
 17  2  4  1 12 30.0000000  0  8G06G05G19G24G25G12G17G02
 -18449792.14549 -14360410.27948  21161675.2734   21161681.4474   21161674.741
        55.0004         51.0004
  -1071032.29347   -825725.96046  24702681.9724   24702687.6914   24702681.247
        42.0004         38.0004
  -9864125.40248  -7629077.86347  22995861.9864   22995864.7664   22995862.655
        50.0004         46.0004
 -18154985.36749 -14104005.19748  21442109.9264   21442115.6304   21442109.460
        54.0004         49.0004
  -3695162.23147  -2838985.22346  24189088.4924   24189096.6664   24189089.887
        45.0004         40.0004
 -21072140.63249 -16412137.80748  21028986.1394   21028988.2564   21028985.799
        55.0004         51.0004
  -2497822.56247  -1937094.46646  24463788.4644   24463792.5894   24463788.542
        46.0004         41.0004
 -26268908.21549 -20408146.26648  19837099.4014   19837100.3384   19837099.753
        57.0004         53.0004
 17  2  4  1 13  0.0000000  0  8G06G05G19G24G25G12G17G02
 -18393184.63249 -14316300.54248  21172447.3834   21172453.5084   21172446.969
        55.0004         51.0004
  -1160263.90847   -895257.00846  24685699.9144   24685705.4934   24685700.764
        42.0004         38.0004
  -9799357.49748  -7578609.39347  23008186.5344   23008189.0914   23008187.722
        50.0004         46.0004
 -18106071.77949 -14065890.73648  21451417.7424   21451423.7144   21451417.228
        54.0004         49.0004
  -3790100.42047  -2912963.00046  24171022.9744   24171030.9344   24171022.917
        45.0004         40.0004
 -21130088.55849 -16457292.02848  21017958.9614   21017961.3794   21017958.420
        55.0004         51.0004
  -2409894.55147  -1868579.10446  24480520.7454   24480527.0784   24480519.594
        45.0004         40.0004
 -26298321.16649 -20431065.43848  19831502.2224   19831503.0184   19831502.682
        57.0004         53.0004
 17  2  4  1 13 30.0000000  0  8G06G05G19G24G25G12G17G02
 -18336127.21149 -14271840.22448  21183304.8714   21183311.0654   21183304.421
        55.0004         51.0004
  -1249569.17647   -964845.36646  24668707.8514   24668714.5454   24668705.784
        42.0004         37.0004
  -9734537.12248  -7528100.03847  23020520.8654   23020524.5584   23020522.394
        50.0004         46.0004
 -18056651.26649 -14027381.25648  21460822.1754   21460828.1674   21460821.895
        54.0004         49.0004
  -3885036.06747  -2986938.78446  24152958.4184   24152966.1624   24152957.789
        45.0004         40.0004
 -21187791.00949 -16502254.96848  21006978.4744   21006980.9514   21006978.097
        55.0004         51.0004
  -2321989.38547  -1800081.71146  24497248.1794   24497253.3474   24497247.777
        45.0004         40.0004
 -26327120.88749 -20453506.76648  19826021.7244   19826022.6704   19826022.222
        57.0004         53.0004
 17  2  4  1 14  0.0000000  0  8G06G05G19G24G25G12G17G02
 -18278622.37449 -14227031.27048  21194247.7864   21194253.8894   21194247.233
        55.0004         51.0004
  -1338945.44547  -1034488.93446  24651698.8764   24651706.2034   24651698.746
        43.0004         38.0004
  -9669664.96348  -7477550.33747  23032866.1884   23032869.9724   23032867.034
        50.0004         45.0004
 -18006726.38549 -13988478.77348  21470322.6694   21470328.4624   21470322.360
        54.0004         49.0004
  -3979967.82047  -3060911.54546  24134893.0614   24134899.7074   24134893.082
        45.0004         40.0004
 -21245245.83949 -16547024.95848  20996045.1974   20996047.6354   20996044.982
        55.0004         51.0004
  -2234107.54547  -1731602.37846  24513971.4344   24513977.5444   24513970.427
        45.0004         40.0004
 -26355306.80749 -20475469.81648  19820658.2484   19820659.1674   19820658.462
        57.0004         53.0004
 17  2  4  1 14 30.0000000  0  9G06G05G19G24G25G12G29G17G02
 -18220672.16949 -14181875.27748  21205275.4694   21205281.6664   21205274.728
        55.0004         51.0004
  -1428390.02547  -1104185.89446  24634677.7834   24634684.3014   24634677.715
        44.0004         40.0004
  -9604741.35748  -7426960.54947  23045220.8304   23045223.9964   23045220.574
        50.0004         45.0004
 -17956298.97149 -13949184.70548  21479918.7604   21479924.6744   21479918.152
        54.0004         49.0004
  -4074893.97547  -3134879.93646  24116827.9364   24116835.1874   24116829.495
        45.0004         40.0004
 -21302450.99249 -16591600.39348  20985159.2844   20985161.7134   20985159.153
        55.0004         51.0004
   -220148.04647   -139419.22946  24883560.8794   24883567.9354   24883562.220
        47.0004         37.0004
  -2146249.56247  -1663141.75446  24530690.1744   24530695.3024   24530689.884
        45.0004         41.0004
 -26382878.35149 -20496954.12548  19815411.5484   19815412.4084   19815411.926
        57.0004         53.0004
 17  2  4  1 15  0.0000000  0  9G06G05G19G24G25G12G29G17G02
 -18162279.08549 -14136374.18748  21216387.2924   21216393.4324   21216386.616
        55.0004         51.0004
  -1517900.66047  -1173934.30246  24617643.6604   24617649.6534   24617644.061
        43.0004         38.0004
  -9539766.98348  -7376331.19847  23057585.3824   23057588.1424   23057586.377
        50.0004         45.0004
 -17905371.58849 -13909501.06148  21489609.7104   21489615.8304   21489609.280
        54.0004         49.0004
  -4169813.11847  -3208842.86846  24098766.0834   24098773.3324   24098766.171
        45.0004         40.0004
 -21359404.27849 -16635979.56948  20974321.4614   20974324.0864   20974321.070
        55.0004         51.0004
   -297353.51347   -199579.28846  24868869.5374   24868876.1204   24868869.761
        44.0004         37.0004
  -2058415.79547  -1594699.88746  24547404.6054   24547408.5144   24547404.258
        45.0004         41.0004
 -26409835.65449 -20517959.80448  19810281.6454   19810282.6884   19810282.035
        57.0004         53.0004
 17  2  4  1 15 30.0000000  0  9G06G05G19G24G25G12G29G17G02
 -18103445.34149 -14090529.72548  21227583.0404   21227589.3814   21227582.508
        55.0004         50.0004
  -1607474.15047  -1243731.71746  24600599.0494   24600605.6934   24600598.534
        43.0004         38.0004
  -9474742.42248  -7325662.73947  23069958.4214   23069961.2614   23069959.920
        50.0004         45.0004
 -17853945.90349 -13869429.12348  21499395.7634   21499401.8764   21499395.092
        54.0004         49.0004
  -4264723.45847  -3282798.94546  24080706.2434   24080712.6884   24080705.385
        45.0004         41.0004
 -21416103.96149 -16680161.13048  20963531.8254   20963534.5804   20963531.686
        56.0004         51.0004
   -374473.11847   -259672.46746  24854196.8094   24854201.8564   24854194.336
        42.0004         38.0004
  -1970606.58947  -1526277.12846  24564114.7164   24564120.9934   24564113.480
        46.0004         41.0004
 -26436177.96949 -20538486.27148  19805268.8894   19805270.0124   19805269.413
        57.0004         53.0004
 17  2  4  1 16  0.0000000  0  9G06G05G19G24G25G12G29G17G02
 -18044173.31249 -14044343.74148  21238862.2614   21238868.0314   21238861.478
        55.0004         50.0004
  -1697108.31147  -1313576.31246  24583542.9144   24583548.5554   24583541.766
        43.0004         39.0004
  -9409668.15348  -7274955.55947  23082342.9394   23082343.8284   23082343.099
        50.0004         45.0004
 -17802024.31148 -13828970.76348  21509276.3254   21509282.0574   21509275.813
        53.0004         49.0004
  -4359623.65847  -3356747.11846  24062647.1294   24062653.2444   24062646.997
        45.0004         41.0004
 -21472547.72749 -16724143.27848  20952790.8064   20952793.7004   20952790.717
        56.0004         51.0004
   -451506.55047   -319698.46246  24839536.9194   24839540.9814   24839535.428
        42.0004         37.0004
  -1882822.30747  -1457873.95746  24580818.8164   24580824.2344   24580817.526
        46.0004         41.0004
 -26461904.89749 -20558533.21748  19800373.3334   19800374.1804   19800373.835
        57.0004         53.0004
 17  2  4  1 16 30.0000000  0  9G06G05G19G24G25G12G29G17G02
 -17984465.31049 -13997818.03648  21250224.2614   21250230.3094   21250223.568
        55.0004         50.0004
  -1786800.60847  -1383466.23646  24566472.8604   24566480.0534   24566473.841
        44.0004         39.0004
  -9344544.57348  -7224209.93947  23094733.6414   23094737.3514   23094735.639
        50.0004         45.0004
 -17749608.97348 -13788127.66648  21519250.5894   21519256.2024   21519250.004
        53.0004         49.0004
  -4454511.91647  -3430685.98246  24044590.2844   24044597.3194   24044590.620
        45.0004         41.0004
 -21528733.45649 -16767924.35548  20942099.1754   20942101.8034   20942098.799
        56.0004         51.0004
   -528454.16547   -379657.61846  24824892.9794   24824897.9834   24824893.697
        42.0004         37.0004
  -1795063.85547  -1389490.73946  24597519.3454   24597524.9704   24597518.675
        45.0004         41.0004
 -26487016.07849 -20578100.35848  19795594.7654   19795595.7774   19795595.162
        57.0004         53.0004
 17  2  4  1 17  0.0000000  0  9G06G05G19G24G25G12G29G17G02
 -17924323.63649 -13950954.40648  21261668.9664   21261674.8134   21261668.264
        55.0004         50.0004
  -1876548.25147  -1453399.34046  24549395.0504   24549403.1084   24549394.687
        43.0004         38.0004
  -9279372.09748  -7173426.22547  23107137.2154   23107139.5714   23107137.395
        50.0004         45.0004
 -17696702.09448 -13746901.54848  21529318.3394   21529324.4544   21529317.855
        53.0004         49.0004
  -4549386.64147  -3504614.29646  24026536.3364   24026543.7384   24026537.123
        45.0004         41.0004
 -21584659.14149 -16811502.80348  20931457.0274   20931459.5604   20931456.611
        56.0004         51.0004
   -605315.77447   -439549.74446  24810266.6124   24810271.7914   24810266.988
        42.0004         37.0004
  -1707331.40747  -1321127.96646  24614213.5374   24614219.6754   24614213.831
        46.0004         41.0004
 -26511511.56049 -20597187.73848  19790933.3864   19790934.3934   19790933.857
        57.0004         53.0004
 17  2  4  1 17 30.0000000  0  9G06G05G19G24G25G12G29G17G02
 -17863750.62449 -13903754.66548  21273195.3454   21273201.5644   21273194.698
        55.0004         50.0004
  -1966348.12947  -1523373.15346  24532307.7154   24532314.5314   24532307.345
        44.0004         39.0004
  -9214151.56048  -7122605.06547  23119548.0594   23119550.3344   23119548.918
        50.0004         45.0004
 -17643306.23648 -13705294.41248  21539479.1474   21539484.9294   21539478.918
        53.0004         49.0004
  -4644246.20347  -3578530.81046  24008484.9154   24008492.2694   24008484.645
        46.0004         41.0004
 -21640322.21049 -16854876.60948  20920864.3574   20920866.9714   20920863.981
        56.0004         51.0004
   -682091.57947   -499375.01046  24795657.6214   24795662.1434   24795657.150
        42.0004         37.0004
  -1619625.36647  -1252785.57646  24630903.9774   24630903.5664   24630904.057
        44.0004         38.0004
 -26535390.95249 -20615795.04548  19786389.0694   19786390.2594   19786389.619
        57.0004         53.0004
 17  2  4  1 18  0.0000000  0  9G06G05G19G24G25G12G29G17G02
 -17802748.78849 -13856220.78148  21284803.9164   21284809.7224   21284803.407
        55.0004         50.0004
  -2056197.69547  -1593385.64246  24515209.1924   24515216.3034   24515208.581
        45.0004         40.0004
  -9148883.19048  -7071746.62047  23131967.3434   23131970.9174   23131968.734
        49.0004         45.0004
 -17589423.25148 -13663307.69748  21549733.0084   21549738.6714   21549732.374
        53.0004         49.0004
  -4739089.13847  -3652434.35946  23990436.5554   23990444.0514   23990437.281
        45.0004         41.0004
 -21695721.40549 -16898044.80448  20910322.4684   20910324.9374   20910322.118
        56.0004         51.0004
   -758781.50947   -559133.35846  24781063.5224   24781069.7914   24781063.435
        42.0004         37.0004
  -1531946.27547  -1184464.25646  24647589.7454   24647595.3744   24647588.178
        44.0004         41.0004
 -26558653.93749 -20633922.03648  19781962.4424   19781963.4834   19781962.871
        57.0004         53.0004
 17  2  4  1 18 30.0000000  0  9G06G05G19G24G25G12G29G17G02
 -17741320.31949 -13808354.45048  21296493.3434   21296499.1044   21296492.544
        55.0004         50.0004
  -2146094.84847  -1663435.21646  24498102.4904   24498108.7494   24498101.574
        44.0004         39.0004
  -9083567.51848  -7020851.33547  23144396.8984   23144400.3854   23144398.026
        49.0004         45.0004
 -17535055.79348 -13620943.46948  21560078.7364   21560084.6254   21560078.334
        53.0004         49.0004
  -4833913.62647  -3726323.54446  23972392.5034   23972399.0824   23972392.542
        46.0004         41.0004
 -21750854.11249 -16941005.34248  20899830.9524   20899833.4634   20899830.650
        56.0004         51.0004
   -835385.50947   -618824.77446  24766486.9164   24766492.7374   24766485.925
        42.0004         38.0004
  -1444294.67747  -1116164.39546  24664268.8894   24664273.0424   24664269.539
        46.0004         41.0004
 -26581299.98249 -20651568.29548  19777653.1174   19777654.0004   19777653.610
        57.0004         53.0004
 17  2  4  1 19  0.0000000  0  9G06G05G19G24G25G12G29G17G02
 -17679467.63949 -13760157.57348  21308263.2464   21308269.3444   21308262.661
        55.0004         50.0004
  -2236036.47147  -1733519.41446  24480987.6454   24480992.8014   24480986.578
        45.0004         40.0004
  -9018205.07448  -6969919.59547  23156834.6454   23156838.3484   23156836.281
        49.0004         45.0004
 -17480205.51548 -13578203.02248  21570516.3494   21570521.8454   21570515.907
        53.0004         49.0004
  -4928718.01547  -3800197.05746  23954351.9324   23954359.2964   23954351.403
        46.0004         41.0004
 -21805718.69749 -16983756.96048  20889390.6344   20889393.3274   20889390.058
        56.0004         51.0004
   -911903.79247   -678449.34546  24751926.6404   24751928.4704   24751926.852
        42.0004         38.0004
  -1356670.59447  -1047885.93946  24680942.6714   24680948.9434   24680942.693
        45.0004         41.0004
 -26603328.98149 -20668733.74348  19773460.9004   19773462.0554   19773461.664
        57.0004         53.0004
 17  2  4  1 19 30.0000000  0  9G06G05G19G24G25G12G29G17G02
 -17617193.17549 -13711632.02948  21320113.8264   21320119.7174   21320112.804
        55.0004         50.0004
  -2326020.05647  -1803636.34146  24463863.6634   24463868.5284   24463863.382
        44.0004         40.0004
  -8952796.22448  -6918951.70147  23169282.5344   23169285.5474   23169282.836
        49.0004         45.0004
 -17424875.32448 -13535088.61548  21581045.5284   21581051.3564   21581044.977
        53.0004         49.0004
  -5023500.70247  -3874053.66346  23936315.2604   23936321.9194   23936315.533
        46.0004         41.0004
 -21860312.72049 -17026297.74648  20879001.5594   20879004.2754   20879001.563
        56.0004         51.0004
   -988336.21547   -738007.03846  24737381.5434   24737386.6584   24737380.945
        42.0004         37.0004
  -1269074.68047   -979629.51646  24697610.3574   24697615.7884   24697609.916
        45.0004         39.0004
 -26624741.29749 -20685418.65448  19769386.2794   19769387.3714   19769386.659
        57.0004         53.0004
 17  2  4  1 20  0.0000000  0  9G06G05G19G24G25G12G29G17G02
 -17554499.23749 -13662779.62248  21332044.0694   21332050.0224   21332043.469
        55.0004         50.0004
  -2416042.96647  -1873783.89646  24446732.5364   24446739.2214   24446731.700
        45.0004         40.0004
  -8887341.47648  -6867948.03247  23181737.9244   23181740.8494   23181738.636
        49.0004         45.0004
 -17369067.12748 -13491601.73648  21591665.2874   21591671.4764   21591664.847
        53.0004         49.0004
  -5118260.00347  -3947892.04846  23918283.3354   23918289.7514   23918282.625
        46.0004         41.0004
 -21914634.26449 -17068626.21148  20868664.6584   20868667.2234   20868664.358
        56.0004         51.0004
  -1064682.97847   -797497.97946  24722851.5284   24722857.1394   24722852.368
        42.0004         37.0004
  -1181507.23747   -911395.05446  24714274.6534   24714280.4104   24714276.060
        43.0004         38.0004
 -26645536.48249 -20701622.68548  19765429.2564   19765430.1624   19765429.656
        57.0004         53.0004
 17  2  4  1 20 30.0000000  0  9G06G05G19G24G25G12G29G17G02
 -17491388.31449 -13613602.29548  21344053.5334   21344059.7744   21344052.944
        55.0004         50.0004
  -2506102.50047  -1943960.04446  24429595.2624   24429601.8794   24429594.618
        45.0004         41.0004
  -8821841.23148  -6816908.92347  23194201.8414   23194204.6474   23194203.488
        49.0004         44.0004
 -17312783.36948 -13447744.29348  21602375.5804   21602381.6074   21602375.430
        53.0004         49.0004
  -5212994.25747  -4021710.90946  23900255.7834   23900262.1654   23900254.936
        46.0004         41.0004
 -21968681.03049 -17110740.56548  20858379.7934   20858382.4304   20858379.488
        56.0004         51.0004
  -1140944.06347   -856922.18346  24708338.7024   24708344.8814   24708339.606
        42.0004         38.0004
  -1093968.80847   -843183.38547  24730934.8704   24730940.3444   24730933.620
        46.0004         43.0004
 -26665714.47849 -20717345.78948  19761589.4704   19761590.4464   19761589.948
        57.0004         53.0004
 17  2  4  1 21  0.0000000  0  9G06G05G19G24G25G12G29G17G02
 -17427862.71049 -13564101.84148  21356142.2704   21356148.3764   21356141.568
        55.0004         50.0004
  -2596195.89547  -2014162.54246  24412449.8494   24412457.6744   24412450.019
        45.0004         41.0004
  -8756295.95448  -6765834.71847  23206674.7794   23206678.0554   23206675.655
        49.0004         44.0004
 -17256026.56348 -13403518.24248  21613176.1514   21613182.3574   21613175.785
        53.0004         49.0004
  -5307701.73647  -4095508.91846  23882233.0214   23882239.9344   23882233.647
        46.0004         41.0004
 -22022450.83349 -17152639.10148  20848147.5814   20848150.6044   20848147.598
        56.0004         51.0004
  -1217119.55447   -916279.62246  24693844.6044   24693849.5404   24693843.542
        42.0004         37.0004
  -1006459.61447   -774994.51647  24747585.3784   24747591.9164   24747584.956
        47.0004         42.0004
 -26685275.02649 -20732587.76548  19757867.2274   19757868.0814   19757867.825
        57.0004         53.0004
 17  2  4  1 21 30.0000000  0  9G06G05G19G24G25G12G29G17G02
 -17363924.96749 -13514280.23548  21368309.1894   21368315.5324   21368309.057
        55.0004         50.0004
  -2686320.51447  -2084389.35146  24395299.9434   24395305.4614   24395299.783
        45.0004         40.0004
  -8690706.20648  -6714725.85547  23219156.3064   23219159.4704   23219157.019
        49.0004         44.0004
 -17198799.16848 -13358925.49448  21624066.5214   21624072.1644   21624065.638
        53.0004         48.0004
  -5402380.74847  -4169284.74046  23864216.4454   23864223.0594   23864216.949
        46.0004         41.0004
 -22075941.62249 -17194320.23248  20837969.0694   20837971.4594   20837968.428
        56.0004         51.0004
  -1293209.43247   -975570.39746  24679364.0184   24679368.7724   24679365.263
        42.0004         37.0004
   -918979.95247   -706828.64245  24764231.9894   24764233.8694   24764232.027
        44.0004         35.0004
 -26704218.29949 -20747348.75048  19754262.3304   19754263.3194   19754262.915
        57.0004         53.0004
 17  2  4  1 22  0.0000000  0  9G06G05G19G24G25G12G29G17G02
 -17299577.36449 -13464139.26548  21380554.1654   21380560.3034   21380553.480
        55.0004         50.0004
  -2776473.56147  -2154638.34946  24378143.9254   24378150.7824   24378144.267
        45.0004         40.0004
  -8625072.16148  -6663582.48747  23231645.9654   23231648.9554   23231646.504
        49.0004         44.0004
 -17141103.33848 -13313967.73948  21635045.8814   21635051.7594   21635044.803
        53.0004         49.0004
  -5497029.57347  -4243037.03047  23846206.4494   23846212.5044   23846205.943
        46.0004         42.0004
 -22129151.39749 -17235782.38648  20827843.3144   20827845.7804   20827843.166
        56.0004         51.0004
  -1369213.84847  -1034794.57246  24664902.5324   24664906.0574   24664902.988
        42.0004         37.0004
   -831530.38647   -638686.05846  24780874.0764   24780879.7794   24780874.498
        44.0004         40.0004
 -26722544.12749 -20761628.61448  19750775.2064   19750776.1924   19750775.649
        57.0004         53.0004
 17  2  4  1 22 30.0000000  0  9G06G05G19G24G25G12G29G17G02
 -17234822.37449 -13413680.84748  21392876.7194   21392882.9584   21392876.362
        55.0004         50.0004
  -2866652.35647  -2224907.35146  24360982.8034   24360990.2844   24360983.346
        45.0004         41.0004
  -8559394.32848  -6612404.98247  23244144.5584   23244147.1934   23244145.822
        49.0004         44.0004
 -17082941.67848 -13268646.99048  21646113.1394   21646119.2354   21646112.780
        53.0004         48.0004
  -5591646.48947  -4316764.48047  23828200.7154   23828207.1074   23828200.777
        46.0004         42.0004
 -22182078.01649 -17277023.90548  20817771.6734   20817774.0594   20817771.418
        56.0004         51.0004
  -1445132.71047  -1093952.05046  24650453.9114   24650459.8674   24650454.340
        42.0004         37.0004
   -744111.24647   -570567.34046  24797509.6764   24797515.4424   24797510.407
        46.0004         41.0004
 -26740252.35549 -20775427.22648  19747405.2874   19747406.3574   19747405.833
        57.0004         53.0004
 17  2  4  1 23  0.0000000  0  9G06G05G19G24G25G12G29G17G02
 -17169662.43049 -13362906.87948  21405276.0404   21405282.4834   21405275.391
        55.0004         50.0004
  -2956854.25647  -2295194.43447  24343818.6064   24343825.1474   24343817.807
        46.0004         42.0004
  -8493673.28748  -6561193.82847  23256650.6814   23256653.3094   23256651.239
        49.0004         44.0004
 -17024316.41848 -13222964.99548  21657269.2154   21657275.6734   21657269.061
        53.0004         49.0004
  -5686229.79147  -4390465.71347  23810200.8614   23810209.2614   23810201.028
        46.0004         42.0004
 -22234719.44149 -17318043.19148  20807754.1694   20807756.9854   20807754.109
        56.0004         51.0004
  -1520966.24947  -1153043.08046  24636022.8864   24636028.0084   24636023.139
        42.0004         38.0004
   -656722.77647   -502472.53646  24814137.6744   24814144.5784   24814138.618
        45.0004         39.0004
 -26757343.30649 -20788744.83748  19744152.9694   19744153.9534   19744153.532
        57.0004         53.0004
 17  2  4  1 23 30.0000000  0  9G06G05G19G24G25G12G29G17G02
 -17104099.99949 -13311819.28548  21417752.1504   21417758.3434   21417751.706
        55.0004         50.0004
  -3047076.21847  -2365497.10046  24326650.2224   24326655.5454   24326649.403
        46.0004         41.0004
  -8427909.34148  -6509949.22547  23269165.2784   23269166.9114   23269166.102
        49.0004         44.0004
 -16965230.18848 -13176923.80648  21668513.1174   21668518.8914   21668512.628
        53.0004         48.0004
  -5780777.66147  -4464139.35047  23792210.0684   23792216.8874   23792210.110
        46.0004         42.0004
 -22287073.41949 -17358838.49348  20797791.8514   20797794.2394   20797791.593
        56.0004         51.0004
  -1596714.39647  -1212067.55246  24621610.1204   24621615.0094   24621609.636
        42.0004         37.0004
   -569365.35447   -434401.93246  24830762.9574   24830767.0194   24830762.197
        43.0004         38.0004
 -26773816.92549 -20801581.41448  19741018.2834   19741019.1284   19741018.661
        57.0004         53.0004
 17  2  4  1 24  0.0000000  0  9G06G05G19G24G25G12G29G17G02
 -17038137.49349 -13260419.94548  21430304.5074   21430310.8214   21430303.777
        55.0004         50.0004
  -3137315.84247  -2435813.58346  24309478.2154   24309483.6164   24309477.347
        46.0004         41.0004
  -8362102.84848  -6458671.48247  23281687.9234   23281690.8294   23281687.965
        49.0004         44.0004
 -16905685.62648 -13130525.47548  21679843.9014   21679850.0904   21679843.718
        53.0004         49.0004
  -5875288.42647  -4537784.07347  23774224.4354   23774232.3614   23774224.150
        46.0004         42.0004
 -22339137.70149 -17399408.06048  20787884.4584   20787886.6114   20787884.055
        56.0004         51.0004
  -1672377.07847  -1271025.48346  24607212.6354   24607218.5904   24607212.597
        42.0004         38.0004
   -482039.54047   -366355.83846  24847381.3034   24847385.9764   24847380.740
        43.0004         39.0004
 -26789673.20449 -20813936.95448  19738000.8424   19738001.7974   19738001.135
        57.0004         53.0004
 17  2  4  1 24 30.0000000  0  9G06G05G19G24G25G12G29G17G02
 -16971777.36949 -13208710.76948  21442932.3674   21442938.4574   21442931.837
        54.0004         50.0004
  -3227570.29047  -2506141.57946  24292302.4044   24292309.5764   24292301.927
        46.0004         41.0004
  -8296254.07348  -6407360.78047  23294217.7154   23294220.4324   23294219.959
        49.0004         44.0004
 -16845684.72648 -13083771.55748  21691261.9344   21691267.6604   21691261.410
        53.0004         49.0004
  -5969760.21047  -4611398.41547  23756248.0594   23756254.9074   23756248.589
        46.0004         42.0004
 -22390910.27849 -17439750.32248  20778032.2604   20778034.8704   20778031.842
        56.0004         51.0004
  -1747954.59247  -1329916.97446  24592830.7864   24592834.9574   24592830.336
        43.0004         38.0004
   -394745.33747   -298334.44446  24863992.0414   24863997.2014   24863991.634
        44.0004         40.0004
 -26804912.06349 -20825811.38548  19735100.9984   19735102.0284   19735101.483
        57.0004         53.0004
 17  2  4  1 25  0.0000000  0  9G06G05G19G24G25G12G29G17G02
 -16905022.05449 -13156693.65448  21455635.7624   21455641.6744   21455635.095
        54.0004         50.0004
  -3317836.71647  -2576478.90446  24275125.1664   24275132.2064   24275124.912
        46.0004         41.0004
  -8230363.38348  -6356017.42847  23306756.5754   23306759.3384   23306757.663
        49.0004         44.0004
 -16785230.16748 -13036664.14248  21702766.0374   21702771.9014   21702765.917
        53.0004         49.0004
  -6064191.34647  -4684981.08747  23738277.6394   23738285.7434   23738277.975
        47.0004         42.0004
 -22442389.28849 -17479863.83748  20768236.0524   20768238.5294   20768235.958
        56.0004         51.0004
  -1823447.00847  -1388742.22046  24578464.6474   24578470.3984   24578463.667
        43.0004         38.0004
   -307483.25347   -230338.07046  24880597.4704   24880603.1404   24880597.250
        44.0004         39.0004
 -26819533.76349 -20837204.91148  19732318.4754   19732319.4864   19732318.886
        57.0004         53.0004
 17  2  4  1 25 30.0000000  0  9G06G05G19G24G25G12G29G17G02
 -16837874.03449 -13104370.53548  21468413.5394   21468419.6734   21468413.076
        54.0004         50.0004
  -3408112.33147  -2646823.41447  24257947.1194   24257952.6694   24257946.221
        47.0004         42.0004
  -8164431.34548  -6304641.85847  23319303.2344   23319306.9434   23319303.687
        49.0004         44.0004
 -16724324.60948 -12989205.29348  21714356.0204   21714361.9554   21714355.749
        53.0004         48.0004
  -6158580.03847  -4758530.68747  23720316.0224   23720323.3314   23720317.315
        47.0004         42.0004
 -22493572.12949 -17519746.56948  20758496.3324   20758498.7154   20758496.042
        56.0004         51.0004
  -1898854.26347  -1447501.07346  24564115.3944   24564121.7514   24564113.735
        43.0004         38.0004
   -220253.63547   -162366.98846  24897196.7684   24897202.5764   24897196.179
        43.0004         38.0004
 -26833538.85749 -20848117.96348  19729653.6024   19729654.4184   19729654.222
        57.0004         53.0004
 17  2  4  1 26  0.0000000  0  9G06G05G19G24G25G12G29G17G02
 -16770335.75849 -13051743.32148  21481265.4314   21481271.7484   21481264.910
        54.0004         50.0004
  -3498394.89947  -2717173.33547  24240766.7524   24240771.7164   24240766.595
        46.0004         42.0004
  -8098458.30948  -6253234.33247  23331857.6444   23331860.8184   23331858.195
        49.0004         44.0004
 -16662970.46048 -12941396.89748  21726031.3234   21726037.4674   21726030.907
        53.0004         49.0004
  -6252924.44347  -4832045.77147  23702363.1364   23702370.7004   23702363.632
        47.0004         42.0004
 -22544457.16649 -17559397.24348  20748813.3354   20748815.6024   20748813.064
        56.0004         51.0004
  -1974176.51647  -1506193.70346  24549782.7064   24549786.1334   24549782.007
        43.0004         38.0004
   -133056.58246    -94421.29146  24913790.9604   24913793.7414   24913790.123
        41.0004         36.0004
 -26846927.12649 -20858550.37248  19727105.8484   19727106.6554   19727106.216
        57.0004         53.0004
 17  2  4  1 26 30.0000000  0  9G06G05G19G24G25G12G29G17G02
 -16702409.73849 -12998813.96848  21494191.5414   21494197.5524   21494190.767
        54.0004         50.0004
  -3588681.10847  -2787526.12646  24223585.2144   24223591.2994   24223585.320
        46.0004         41.0004
  -8032444.59548  -6201795.11747  23344419.5564   23344422.2254   23344420.349
        49.0004         44.0004
 -16601170.15948 -12893240.84248  21737791.6794   21737797.6404   21737791.215
        53.0004         48.0004
  -6347222.77047  -4905524.95247  23684419.2434   23684425.0944   23684419.556
        47.0004         42.0004
 -22595042.26349 -17598814.19948  20739187.3174   20739189.7084   20739186.874
        56.0004         51.0004
  -2049413.75447  -1564820.08446  24535464.1374   24535468.5104   24535464.580
        43.0004         39.0004
    -45892.52946    -26501.33545  24930375.1784   24930383.8984   24930375.825
        40.0004         35.0004
 -26859698.74749 -20868502.27648  19724675.3134   19724676.3744   19724675.592
        57.0004         53.0004
 17  2  4  1 27  0.0000000  0  8G06G05G19G24G25G12G29G02
 -16634098.38049 -12945584.35048  21507190.7264   21507196.7094   21507189.954
        54.0004         49.0004
  -3678968.40247  -2857879.74346  24206403.6134   24206410.7474   24206403.517
        46.0004         41.0004
  -7966390.66648  -6150324.56147  23356989.6534   23356992.6264   23356989.594
        49.0004         44.0004
 -16538926.11648 -12844739.02048  21749636.1274   21749642.3084   21749635.841
        53.0004         48.0004
  -6441473.20647  -4978966.81647  23666483.9914   23666491.1424   23666484.912
        47.0004         42.0004
 -22645324.83849 -17637995.42148  20729618.7974   20729621.1954   20729618.527
        56.0004         51.0004
  -2124566.11647  -1623380.29546  24521163.6924   24521168.7054   24521162.780
        43.0004         39.0004
 -26871854.10049 -20877973.97648  19722362.2714   19722363.1734   19722363.143
        57.0004         53.0004
 17  2  4  1 27 30.0000000  0  8G06G05G19G24G25G12G29G02
 -16565404.19249 -12892056.42448  21520262.6804   21520268.9034   21520262.057
        54.0004         49.0004
  -3769254.45547  -2928232.59047  24189224.0204   24189230.2994   24189222.774
        46.0004         42.0004
  -7900296.77048  -6098822.85547  23369566.1184   23369569.4854   23369567.947
        49.0004         44.0004
 -16476241.11948 -12795893.59348  21761565.2744   21761570.5314   21761564.420
        53.0004         48.0004
  -6535673.93747  -5052369.95247  23648556.9514   23648564.7084   23648558.273
        47.0004         42.0004
 -22695303.05349 -17676939.47848  20720108.2294   20720110.5344   20720107.924
        56.0004         51.0004
  -2199633.77247  -1681874.52346  24506878.9094   24506882.3994   24506878.788
        43.0004         39.0004
 -26883393.26449 -20886965.52648  19720166.4994   19720167.5984   19720166.841
        57.0004         53.0004
 17  2  4  1 28  0.0000000  0  8G06G05G19G24G25G12G29G02
 -16496329.65949 -12838232.12348  21533407.4684   21533413.4834   21533406.533
        54.0004         49.0004
  -3859534.96947  -2998580.88247  24172043.1994   24172049.5234   24172043.960
        47.0004         43.0004
  -7834163.28848  -6047290.32847  23382151.3114   23382154.7024   23382152.026
        49.0004         44.0004
 -16413117.81648 -12746706.62748  21773576.7114   21773582.7284   21773576.453
        53.0004         48.0004
  -6629823.11147  -5125732.90147  23630641.5394   23630648.0334   23630641.530
        47.0004         42.0004
 -22744974.87349 -17715644.78648  20710655.9834   20710658.4464   20710655.980
        56.0004         52.0004
  -2274616.40147  -1740302.50346  24492609.5554   24492613.7684   24492608.960
        44.0004         39.0004
 -26894316.72849 -20895477.30848  19718087.7754   19718088.7944   19718088.569
        57.0004         53.0004
 17  2  4  1 28 30.0000000  0  8G06G05G19G24G25G12G29G02
 -16426877.42049 -12784113.50948  21546623.7064   21546629.8564   21546622.914
        54.0004         49.0004
  -3949807.76147  -3068923.00247  24154864.6994   24154871.2784   24154864.023
        47.0004         42.0004
  -7767990.44948  -5995727.11647  23394742.7554   23394746.0374   23394744.553
        49.0004         44.0004
 -16349558.64848 -12697180.03148  21785671.5604   21785677.7414   21785670.979
        53.0004         48.0004
  -6723918.99447  -5199054.33747  23612736.8484   23612743.3634   23612736.804
        47.0004         43.0004
 -22794337.95449 -17754109.51948  20701262.5524   20701264.7234   20701262.194
        56.0004         52.0004
  -2349514.90447  -1798664.93246  24478357.3984   24478362.2714   24478356.801
        44.0004         40.0004
 -26904624.82149 -20903509.58448  19716126.0414   19716127.2264   19716126.704
        58.0004         53.0004
 17  2  4  1 29  0.0000000  0  8G06G05G19G24G25G12G29G02
 -16357049.69049 -12729702.30148  21559911.1724   21559917.2864   21559910.593
        54.0004         49.0004
  -4040070.98147  -3139257.86746  24137687.4234   24137693.1824   24137686.979
        46.0004         41.0004
  -7701778.68148  -5944133.56547  23407342.6044   23407345.8024   23407343.972
        49.0004         44.0004
 -16285566.24748 -12647315.85448  21797849.3204   21797855.1314   21797848.703
        53.0004         48.0004
  -6817959.54847  -5272332.65247  23594840.1854   23594846.8984   23594839.515
        47.0004         43.0004
 -22843389.93749 -17792331.83848  20691928.2394   20691930.6904   20691927.898
        56.0004         52.0004
  -2424328.39547  -1856961.10946  24464122.0194   24464126.6274   24464120.605
        44.0004         39.0004
 -26914317.70349 -20911062.47248  19714281.7224   19714282.8174   19714282.182
        58.0004         53.0004
 17  2  4  1 29 30.0000000  0  8G06G05G19G24G25G12G29G02
 -16286849.19249 -12675000.62948  21573270.0994   21573276.1314   21573269.247
        54.0004         49.0004
  -4130321.75747  -3209583.06847  24120515.1204   24120520.3024   24120513.756
        46.0004         42.0004
  -7635528.36948  -5892509.99447  23419949.6404   23419953.6684   23419951.260
        49.0004         44.0004
 -16221143.76248 -12597116.54348  21810108.3694   21810114.2904   21810107.869
        53.0004         48.0004
  -6911943.02847  -5345566.49247  23576955.7524   23576962.3194   23576956.216
        47.0004         43.0004
 -22892129.06949 -17830310.37748  20682653.3684   20682656.0294   20682653.374
        56.0004         52.0004
  -2499057.50247  -1915191.55746  24449899.3024   24449905.4954   24449898.993
        44.0004         40.0004
 -26923395.86149 -20918136.35548  19712554.1794   19712555.1914   19712554.621
        58.0004         53.0004
 17  2  4  1 30  0.0000000  0  8G06G05G19G24G25G12G29G02
 -16216278.24149 -12620010.28848  21586699.1074   21586705.4074   21586698.571
        54.0004         49.0004
  -4220556.84447  -3279896.02047  24103342.5954   24103348.1784   24103342.329
        47.0004         42.0004
  -7569239.64148  -5840856.48747  23432564.8664   23432568.0164   23432565.862
        49.0004         44.0004
 -16156292.95148 -12546583.47048  21822448.9354   21822455.1414   21822448.828
        53.0004         48.0004
  -7005867.42448  -5418754.30847  23559083.0794   23559089.4324   23559083.521
        48.0004         43.0004
 -22940553.23249 -17868043.48448  20673438.5354   20673441.0544   20673438.343
        56.0004         52.0004
  -2573702.10447  -1973356.16046  24435693.7384   24435701.2994   24435693.952
        44.0004         40.0004
 -26931859.58849 -20924731.46048  19710943.5334   19710944.5354   19710943.977
        58.0004         53.0004
 17  2  4  1 30 30.0000000  0  8G06G05G19G24G25G12G29G02
 -16145339.50949 -12564733.36848  21600198.1464   21600204.5164   21600197.851
        54.0004         49.0004
  -4310773.08247  -3350194.28647  24086174.3914   24086180.5394   24086173.611
        47.0004         42.0004
  -7502912.88048  -5789173.33847  23445186.4884   23445189.6094   23445186.595
        49.0004         44.0004
 -16091016.58448 -12495718.79448  21834871.1984   21834876.8924   21834870.160
        52.0004         48.0004
  -7099731.07648  -5491894.78347  23541220.7594   23541228.1704   23541221.387
        48.0004         43.0004
 -22988660.33349 -17905529.53548  20664284.2074   20664286.6744   20664283.936
        56.0004         52.0004
  -2648262.38547  -2031455.02746  24421505.7504   24421512.6014   24421506.583
        44.0004         39.0004
 -26939709.24049 -20930848.07548  19709449.9984   19709450.9254   19709450.487
        58.0004         53.0004
 17  2  4  1 31  0.0000000  0  8G06G05G19G24G25G12G29G02
 -16074035.43849 -12509171.76748  21613767.2654   21613773.6644   21613766.683
        54.0004         49.0004
  -4400968.05047  -3420475.94047  24069011.0774   24069017.1864   24069010.600
        46.0004         42.0004
  -7436548.23948  -5737460.67447  23457815.2494   23457818.4594   23457816.447
        48.0004         44.0004
 -16025318.14348 -12444525.24048  21847372.9614   21847378.9344   21847372.246
        52.0004         48.0004
  -7193531.94448  -5564986.32947  23523371.3074   23523378.0094   23523370.890
        48.0004         43.0004
 -23036448.20449 -17942766.83048  20655190.5334   20655193.1034   20655190.128
        56.0004         52.0004
  -2722738.51847  -2089488.32346  24407333.6304   24407338.6134   24407332.527
        44.0004         40.0004
 -26946945.33349 -20936486.58448  19708073.0084   19708073.8814   19708073.576
        58.0004         53.0004
 17  2  4  1 31 30.0000000  0  8G06G05G19G24G25G12G29G02
 -16002368.51349 -12453327.42148  21627404.8884   21627411.0234   21627404.117
        54.0004         49.0004
  -4491138.94847  -3490738.91947  24051852.3134   24051858.2114   24051852.891
        46.0004         42.0004
  -7370146.12148  -5685718.80747  23470451.5744   23470454.1714   23470451.938
        49.0004         44.0004
 -15959199.35348 -12393004.13148  21859954.7584   21859960.7444   21859954.157
        52.0004         48.0004
  -7287268.11848  -5638027.46247  23505533.2954   23505540.6154   23505534.438
        48.0004         43.0004
 -23083914.52649 -17979753.56948  20646157.7494   20646160.4264   20646157.706
        56.0004         52.0004
  -2797130.50647  -2147456.06446  24393179.8604   24393183.4954   24393178.315
        44.0004         40.0004
 -26953568.15849 -20941647.21948  19706812.4484   19706813.5414   19706812.938
        58.0004         53.0004
 17  2  4  1 32  0.0000000  0  8G06G05G19G24G25G12G29G02
 -15930341.27248 -12397202.31748  21641111.2734   21641117.4764   21641110.656
        53.0004         49.0004
  -4581282.72247  -3560980.73347  24034698.5624   24034705.0714   24034697.867
        46.0004         42.0004
  -7303706.95148  -5633948.06547  23483093.4274   23483097.1354   23483094.864
        48.0004         44.0004
 -15892663.41548 -12341157.97248  21872616.1954   21872622.1824   21872615.614
        52.0004         48.0004
  -7380937.69048  -5711016.70847  23487708.8264   23487715.2904   23487709.578
        48.0004         43.0004
 -23131057.39249 -18016488.26648  20637186.7954   20637189.6374   20637186.635
        56.0004         52.0004
  -2871438.75547  -2205358.58946  24379036.4014   24379043.5744   24379036.108
        44.0004         40.0004
 -26959578.50849 -20946330.60648  19705668.9644   19705669.8194   19705669.514
        58.0004         53.0004
 17  2  4  1 32 30.0000000  0  8G06G05G19G24G25G12G29G02
 -15857956.25748 -12340798.42948  21654885.9654   21654892.1024   21654884.919
        53.0004         49.0004
  -4671396.85747  -3631199.42647  24017550.0474   24017556.0714   24017550.398
        46.0004         42.0004
  -7237230.78448  -5582148.50247  23495743.5714   23495747.4764   23495744.636
        48.0004         44.0004
 -15825712.67248 -12288988.59348  21885356.7954   21885362.2964   21885355.930
        52.0004         48.0004
  -7474538.90648  -5783952.67147  23469897.4154   23469903.7104   23469897.355
        48.0004         43.0004
 -23177874.60849 -18052969.21148  20628277.9664   20628280.4544   20628277.537
        56.0004         52.0004
  -2945662.73147  -2263195.37346  24364912.4024   24364917.3464   24364913.023
        44.0004         40.0004
 -26964976.82949 -20950537.08948  19704641.6214   19704642.5624   19704641.862
        58.0004         53.0004
 17  2  4  1 33  0.0000000  0  8G06G05G19G24G25G12G29G02
 -15785215.96348 -12284117.70048  21668727.8844   21668734.0254   21668726.995
        53.0004         49.0004
  -4761478.32047  -3701392.64147  24000408.7884   24000414.4064   24000407.598
        47.0004         42.0004
  -7170718.11248  -5530320.49647  23508401.7814   23508403.5044   23508401.968
        48.0004         44.0004
 -15758350.27148 -12236498.43848  21898174.9714   21898181.3724   21898174.615
        52.0004         48.0004
  -7568069.52248  -5856833.64147  23452098.9234   23452105.7524   23452098.789
        48.0004         43.0004
 -23224363.97149 -18089194.68248  20619431.3074   20619433.6644   20619430.977
        56.0004         52.0004
  -3019802.89247  -2320966.87246  24350803.3224   24350808.3184   24350802.928
        44.0004         40.0004
 -26969763.62149 -20954267.05648  19703730.7624   19703731.6704   19703731.279
        58.0004         53.0004
 17  2  4  1 33 30.0000000  0  8G06G05G19G24G25G12G29G02
 -15712122.90048 -12227162.08748  21682637.1994   21682643.1994   21682636.229
        53.0004         49.0004
  -4851524.45647  -3771558.36647  23983273.2124   23983278.3984   23983272.155
        47.0004         42.0004
  -7104169.23548  -5478464.26847  23521064.8994   23521068.4574   23521066.131
        48.0004         44.0004
 -15690578.79448 -12183689.51647  21911072.0064   21911078.0274   21911070.880
        52.0004         47.0004
  -7661527.79748  -5929658.23947  23434314.2724   23434321.1914   23434313.962
        48.0004         43.0004
 -23270523.43649 -18125163.09448  20610647.3094   20610650.0094   20610647.050
        56.0004         52.0004
  -3093859.20047  -2378673.03946  24336712.6784   24336718.7614   24336711.490
        44.0004         40.0004
 -26973939.24049 -20957520.77948  19702936.1094   19702937.0304   19702936.665
        58.0004         53.0004
 17  2  4  1 34  0.0000000  0  8G06G05G19G24G25G12G29G02
 -15638679.64148 -12169933.59048  21696612.6534   21696619.1294   21696612.128
        53.0004         49.0004
  -4941532.17547  -3841694.17846  23966144.9604   23966150.0404   23966144.829
        46.0004         41.0004
  -7037584.19148  -5426579.86647  23533735.1814   23533739.5864   23533735.811
        48.0004         44.0004
 -15622401.05948 -12130564.04047  21924045.2454   21924051.9234   21924044.881
        52.0004         47.0004
  -7754911.80848  -6002424.96647  23416543.6644   23416550.8594   23416543.707
        48.0004         43.0004
 -23316350.79749 -18160872.72148  20601926.6314   20601929.2444   20601926.555
        56.0004         52.0004
  -3167832.16047  -2436314.28246  24322636.4874   24322641.0224   24322636.881
        44.0004         40.0004
 -26977504.35649 -20960298.78548  19702257.6344   19702258.5474   19702258.200
        58.0004         53.0004
 17  2  4  1 34 30.0000000  0  8G06G05G19G24G25G12G29G02
 -15564888.65248 -12112434.13948  21710655.0374   21710661.0504   21710654.399
        53.0004         49.0004
  -5031498.75747  -3911797.89247  23949025.0954   23949030.8394   23949025.815
        46.0004         42.0004
  -6970963.26848  -5374667.50647  23546413.0114   23546416.9664   23546414.144
        48.0004         44.0004
 -15553819.39348 -12077123.80747  21937096.5054   21937102.4844   21937095.715
        52.0004         47.0004
  -7848219.53248  -6075132.24347  23398787.2154   23398794.9214   23398787.998
        48.0004         43.0004
 -23361844.08849 -18196322.03648  20593269.7724   20593272.1224   20593269.464
        56.0004         52.0004
  -3241721.29847  -2493890.20946  24308575.3804   24308581.5524   24308574.763
        44.0004         40.0004
 -26980459.58349 -20962601.55448  19701695.3504   19701696.2334   19701696.003
        58.0004         53.0004
 17  2  4  1 35  0.0000000  0  8G06G05G19G24G25G12G29G02
 -15490752.55748 -12054665.77548  21724762.2274   21724768.2774   21724761.267
        53.0004         49.0004
  -5121421.26247  -3981867.27747  23931914.1564   23931918.7114   23931913.532
        47.0004         43.0004
  -6904306.71448  -5322727.37747  23559097.1484   23559101.3074   23559098.332
        48.0004         43.0004
 -15484837.09448 -12023371.40047  21950223.5734   21950229.7264   21950222.636
        52.0004         47.0004
  -7941448.98748  -6147778.54247  23381046.5284   23381053.8654   23381047.776
        48.0004         43.0004
 -23407001.25649 -18231509.43448  20584676.4164   20584679.0044   20584676.171
        56.0004         52.0004
  -3315527.01247  -2551401.09746  24294529.3584   24294535.0454   24294528.295
        44.0004         40.0004
 -26982805.52949 -20964429.56048  19701248.9594   19701249.7344   19701249.210
        58.0004         53.0004
 17  2  4  1 35 30.0000000  0  8G06G05G19G24G25G12G29G02
 -15416273.89248 -11996630.47048  21738934.9894   21738941.2824   21738934.389
        53.0004         49.0004
  -5211297.16247  -4051900.34547  23914809.8244   23914815.8024   23914809.278
        47.0004         42.0004
  -6837614.78348  -5270759.68547  23571788.3804   23571791.7874   23571789.674
        48.0004         43.0004
 -15415456.94448 -11969308.97647  21963425.6584   21963431.5074   21963425.521
        52.0004         47.0004
  -8034598.31448  -6220362.40247  23363321.0464   23363328.6224   23363319.859
        48.0004         43.0004
 -23451819.72249 -18266432.91448  20576147.8084   20576150.1534   20576147.719
        56.0004         52.0004
  -3389249.49747  -2608847.14346  24280498.4204   24280506.1614   24280497.696
        44.0004         39.0004
 -26984543.09649 -20965783.50748  19700918.3114   19700919.2604   19700918.841
        58.0004         53.0004
 17  2  4  1 36  0.0000000  0  8G06G05G19G24G25G12G29G02
 -15341455.04048 -11938330.09148  21753172.4564   21753178.7274   21753171.880
        53.0004         49.0004
  -5301123.38747  -4121894.70046  23897716.9304   23897721.9394   23897716.004
        46.0004         41.0004
  -6770887.74348  -5218764.63747  23584486.2524   23584489.8654   23584487.202
        48.0004         43.0004
 -15345681.14848 -11914938.26347  21976703.4054   21976710.2524   21976703.218
        51.0004         47.0004
  -8127665.25348  -6292882.06347  23345611.0614   23345618.1244   23345611.934
        48.0004         43.0004
 -23496297.72249 -18301091.09448  20567683.7624   20567686.3124   20567683.598
        56.0004         52.0004
  -3462888.43247  -2666228.07346  24266491.4464   24266494.3684   24266489.438
        44.0004         40.0004
 -26985672.70049 -20966663.71548  19700703.1984   19700704.1404   19700703.876
        58.0004         53.0004
 17  2  4  1 36 30.0000000  0  8G06G05G19G24G25G12G29G02
 -15266298.73348 -11879766.75848  21767474.5144   21767480.7914   21767473.600
        53.0004         49.0004
  -5390897.18247  -4191848.24147  23880633.3944   23880639.7014   23880633.334
        46.0004         42.0004
  -6704125.82348  -5166742.41247  23597191.1754   23597194.3354   23597191.302
        48.0004         43.0004
 -15275512.93948 -11860261.76647  21990056.8744   21990062.1174   21990055.767
        51.0004         47.0004
  -8220648.09248  -6365336.18947  23327917.0894   23327924.4624   23327917.320
        48.0004         43.0004
 -23540433.16849 -18335482.34948  20559285.3004   20559287.6624   20559285.012
        56.0004         52.0004
  -3536444.52247  -2723544.46546  24252491.7884   24252496.5474   24252490.046
        44.0004         39.0004
 -26986195.20549 -20967070.85948  19700603.8574   19700604.8444   19700604.170
        58.0004         53.0004
 17  2  4  1 37  0.0000000  0  8G06G05G19G24G25G12G29G02
 -15190807.30048 -11820942.28748  21781839.7054   21781846.3764   21781839.079
        53.0004         49.0004
  -5480615.16647  -4261758.26847  23863561.2354   23863566.7134   23863560.812
        47.0004         43.0004
  -6637329.11147  -5114693.08047  23609900.9234   23609905.0074   23609902.598
        47.0004         43.0004
 -15204954.71948 -11805281.37147  22003482.6654   22003489.4184   22003482.639
        51.0004         47.0004
  -8313544.61548  -6437723.06747  23310239.4914   23310246.2854   23310239.249
        48.0004         43.0004
 -23584223.79349 -18369604.91048  20550951.9864   20550954.5454   20550951.908
        56.0004         52.0004
  -3609917.48147  -2780796.08246  24238507.9954   24238513.0754   24238509.561
        44.0004         40.0004
 -26986111.36749 -20967005.53048  19700619.6874   19700620.8554   19700620.272
        58.0004         53.0004
 17  2  4  1 37 30.0000000  0  8G06G05G19G24G25G12G29G02
 -15114983.46148 -11761858.79748  21796268.7074   21796275.2474   21796268.232
        53.0004         49.0004
  -5570274.65747  -4331622.69647  23846499.2584   23846505.2334   23846497.811
        47.0004         42.0004
  -6570498.25448  -5062617.13947  23622619.4154   23622622.6494   23622620.573
        48.0004         43.0004
 -15134009.52348 -11749999.43547  22016983.2484   22016989.2904   22016983.065
        51.0004         47.0004
  -8406352.93948  -6510041.21347  23292578.9384   23292585.3994   23292578.728
        48.0004         44.0004
 -23627667.56649 -18403457.19948  20542685.0244   20542687.4624   20542684.798
        56.0004         52.0004
  -3683307.50747  -2837983.02746  24224547.6024   24224549.8324   24224545.171
        44.0004         39.0004
 -26985422.09849 -20966468.43648  19700750.9514   19700751.9194   19700751.526
        58.0004         53.0004
 17  2  4  1 38  0.0000000  0  8G06G05G19G24G25G12G29G02
 -15038829.70648 -11702518.23348  21810760.4564   21810766.8504   21810759.933
        53.0004         49.0004
  -5659873.30147  -4401439.72547  23829448.8954   23829453.3184   23829449.518
        47.0004         42.0004
  -6503633.15548  -5010514.52747  23635343.2734   23635347.0544   23635343.403
        48.0004         43.0004
 -15062680.55948 -11694418.45247  22030556.7484   22030563.5524   22030556.475
        51.0004         47.0004
  -8499070.99648  -6582289.01647  23274935.4024   23274942.2154   23274935.376
        48.0004         44.0004
 -23670762.34749 -18437037.54348  20534484.4684   20534486.9064   20534484.184
        56.0004         52.0004
  -3756614.77847  -2895105.52146  24210593.1964   24210597.8354   24210592.377
        44.0004         39.0004
 -26984127.85949 -20965459.93348  19700997.1584   19700998.1274   19700997.484
        58.0004         53.0004
 17  2  4  1 38 30.0000000  0  8G06G05G19G24G25G12G29G02
 -14962348.59248 -11642922.58548  21825314.6864   21825320.6294   21825313.902
        53.0004         49.0004
  -5749408.22747  -4471207.14047  23812411.2934   23812416.4104   23812411.176
        47.0004         43.0004
  -6436733.98948  -4958385.35947  23648073.6974   23648076.8654   23648075.044
        48.0004         43.0004
 -14990970.05448 -11638540.17547  22044202.9614   22044209.0374   22044202.716
        51.0004         47.0004
  -8591696.74048  -6654464.89847  23257309.0294   23257315.3914   23257308.559
        48.0004         44.0004
 -23713505.90849 -18470344.21448  20526350.5694   20526353.0664   20526350.276
        56.0004         52.0004
  -3829839.23647  -2952163.50346  24196658.0894   24196663.1594   24196659.492
        44.0004         40.0004
 -26982229.35849 -20963980.58348  19701358.4114   19701359.4444   19701359.219
        58.0004         53.0004
 17  2  4  1 39  0.0000000  0  8G06G05G19G24G25G12G29G02
 -14885542.62848 -11583073.80748  21839930.0944   21839936.2154   21839929.102
        53.0004         48.0004
  -5838875.83147  -4540922.04847  23795386.0264   23795391.0724   23795385.438
        47.0004         43.0004
  -6369800.95747  -4906229.79947  23660810.7144   23660814.7214   23660811.467
        47.0004         43.0004
 -14918881.63948 -11582367.41747  22057921.0194   22057927.4324   22057920.740
        51.0004         47.0004
  -8684228.18648  -6726567.29747  23239700.6854   23239707.9534   23239700.898
        48.0004         44.0004
 -23755896.72649 -18503376.01648  20518283.9554   20518286.3574   20518283.849
        57.0004         52.0004
  -3902981.12747  -3009157.12746  24182740.7304   24182744.6684   24182741.268
        44.0004         40.0004
 -26979727.54449 -20962031.11948  19701834.5704   19701835.5554   19701834.941
        58.0004         53.0004
 17  2  4  1 39 30.0000000  0  8G06G05G19G24G25G12G29G02
 -14808414.30048 -11522973.82848  21854606.9424   21854613.3174   21854606.284
        53.0004         49.0004
  -5928273.74647  -4610582.65047  23778374.0314   23778378.7784   23778373.652
        47.0004         43.0004
  -6302834.10247  -4854047.88547  23673554.3054   23673558.2464   23673553.761
        47.0004         43.0004
 -14846417.46548 -11525901.86247  22071710.7544   22071716.0604   22071709.995
        51.0004         47.0004
  -8776663.15248  -6798594.52247  23222111.4174   23222117.7994   23222111.007
        48.0004         44.0004
 -23797932.23449 -18536130.95448  20510284.6464   20510287.3864   20510284.511
        57.0004         52.0004
  -3976040.62047  -3066086.56046  24168838.7134   24168843.1024   24168837.015
        44.0004         40.0004
 -26976623.40949 -20959612.30848  19702425.2174   19702426.2744   19702425.518
        57.0004         53.0004
 17  2  4  1 40  0.0000000  0  8G06G05G19G24G25G12G29G02
 -14730966.33848 -11462624.79348  21869345.2514   21869351.0894   21869344.830
        53.0004         48.0004
  -6017599.07547  -4680186.74747  23761376.3844   23761380.2394   23761375.161
        47.0004         42.0004
  -6235834.05547  -4801840.12147  23686304.9444   23686307.8254   23686304.451
        47.0004         43.0004
 -14773580.65148 -11469145.93547  22085570.8384   22085577.2734   22085570.417
        51.0004         47.0004
  -8868999.67048  -6870545.02147  23204539.9464   23204546.3304   23204540.300
        49.0004         44.0004
 -23839610.33649 -18568607.38948  20502353.7854   20502356.0444   20502353.504
        57.0004         52.0004
  -4049017.77647  -3122951.83746  24154951.1624   24154957.0854   24154949.509
        44.0004         40.0004
 -26972917.80349 -20956724.82348  19703130.5204   19703131.4224   19703131.072
        57.0004         53.0004
 17  2  4  1 40 30.0000000  0  8G06G05G19G24G25G12G29G02
 -14653201.04848 -11402028.48348  21884143.2594   21884149.0454   21884142.773
        53.0004         48.0004
  -6106848.58147  -4749731.74547  23744392.0544   23744396.8734   23744391.252
        47.0004         42.0004
  -6168800.64347  -4749606.33847  23699059.6904   23699063.6784   23699061.833
        47.0004         42.0004
 -14700373.85048 -11412101.71247  22099501.3104   22099507.6814   22099501.445
        51.0004         47.0004
  -8961235.59148  -6942417.14747  23186987.7794   23186994.4104   23186988.197
        49.0004         44.0004
 -23880928.90149 -18600803.66948  20494490.9584   20494493.5594   20494490.772
        57.0004         52.0004
  -4121912.58347  -3179752.93946  24141079.3464   24141083.8824   24141080.245
        45.0004         40.0004
 -26968611.52849 -20953369.27848  19703949.7154   19703950.8304   19703950.172
        57.0004         53.0004
 17  2  4  1 41  0.0000000  0  8G06G05G19G24G25G12G29G02
 -14575121.17148 -11341187.04448  21899001.3584   21899007.4764   21899000.643
        53.0004         48.0004
  -6196019.71347  -4819215.63547  23727423.7144   23727428.5384   23727422.748
        47.0004         43.0004
  -6101734.31647  -4697346.91447  23711822.7404   23711825.3704   23711823.155
        47.0004         42.0004
 -14626800.51748 -11354771.88147  22113502.4064   22113508.2054   22113501.739
        51.0004         47.0004
  -9053368.99848  -7014209.39047  23169455.2214   23169462.8074   23169455.674
        49.0004         44.0004
 -23921885.88049 -18632718.19348  20486697.3114   20486699.5934   20486696.924
        57.0004         52.0004
  -4194725.43047  -3236490.18246  24127223.0174   24127227.3414   24127223.651
        45.0004         40.0004
 -26963705.56949 -20949546.45048  19704883.5464   19704884.4684   19704883.923
        57.0004         53.0004
 17  2  4  1 41 30.0000000  0  8G06G05G19G24G25G12G29G02
 -14496729.11548 -11280102.34748  21913918.7554   21913925.3064   21913918.315
        53.0004         48.0004
  -6285109.51748  -4888636.17247  23710469.5214   23710475.1264   23710469.094
        48.0004         43.0004
  -6034634.73947  -4645061.59047  23724590.5014   23724593.8844   23724591.810
        47.0004         42.0004
 -14552863.04148 -11297158.29947  22127572.2834   22127578.1724   22127571.688
        51.0004         47.0004
  -9145397.62948  -7085919.99647  23151943.2034   23151949.4054   23151942.835
        49.0004         44.0004
 -23962479.05049 -18664349.22548  20478972.4424   20478974.9554   20478972.299
        57.0004         52.0004
  -4267456.18847  -3293163.46246  24113383.3464   24113387.4754   24113384.165
        45.0004         40.0004
 -26958200.90849 -20945257.09448  19705930.9934   19705932.0444   19705931.567
        57.0004         53.0004
 17  2  4  1 42  0.0000000  0  8G06G05G19G24G25G12G29G02
 -14418027.49748 -11218776.43948  21928895.3254   21928901.9014   21928895.011
        53.0004         48.0004
  -6374115.11347  -4957991.10447  23693533.0854   23693537.6954   23693532.159
        47.0004         42.0004
  -5967502.50247  -4592750.83847  23737365.6664   23737369.3714   23737366.690
        47.0004         42.0004
 -14478564.45748 -11239263.34147  22141710.9224   22141717.1814   22141710.205
        51.0004         47.0004
  -9237319.42148  -7157547.34847  23134450.8614   23134457.1224   23134451.320
        49.0004         44.0004
 -24002706.88449 -18695695.58648  20471317.4484   20471319.8434   20471317.409
        57.0004         52.0004
  -4340104.94247  -3349772.82946  24099561.3564   24099565.3394   24099560.436
        45.0004         41.0004
 -26952098.48449 -20940501.95648  19707092.2094   19707093.3074   19707092.519
        57.0004         53.0004
 17  2  4  1 42 30.0000000  0  8G06G05G19G24G25G12G29G02
 -14339018.87048 -11157211.29848  21943930.4554   21943936.1924   21943929.585
        53.0004         48.0004
  -6463033.38747  -5027278.00147  23676612.4344   23676616.9744   23676611.722
        47.0004         43.0004
  -5900337.66747  -4540414.66347  23750147.7674   23750149.2124   23750148.553
        47.0004         42.0004
 -14403907.70348 -11181089.28747  22155917.7024   22155923.4774   22155917.100
        51.0004         47.0004
  -9329132.28648  -7229089.82247  23116979.2634   23116986.8244   23116979.886
        49.0004         44.0004
 -24042566.84149 -18726755.28548  20463732.3084   20463734.8224   20463732.099
        57.0004         52.0004
  -4412672.00447  -3406318.55646  24085750.7064   24085754.3494   24085750.846
        45.0004         41.0004
 -26945399.10749 -20935281.65948  19708367.1364   19708368.1344   19708367.696
        57.0004         53.0004
 17  2  4  1 43  0.0000000  0  8G06G05G19G24G25G12G29G02
 -14259705.66148 -11095408.81848  21959023.2384   21959029.1604   21959022.808
        53.0004         48.0004
  -6551861.39348  -5096494.57047  23659708.8694   23659713.6054   23659709.250
        48.0004         43.0004
  -5833140.28947  -4488053.13447  23762934.2514   23762938.0914   23762936.126
        47.0004         42.0004
 -14328895.83448 -11122638.52147  22170191.6824   22170198.2264   22170190.963
        51.0004         47.0004
  -9420834.00148  -7300545.68747  23099528.7934   23099535.5454   23099529.684
        49.0004         44.0004
 -24082056.69049 -18757526.59048  20456217.7524   20456220.1824   20456217.488
        57.0004         52.0004
  -4485157.20147  -3462800.50046  24071955.2894   24071960.8934   24071955.761
        45.0004         41.0004
 -26938103.96949 -20929597.13048  19709755.1694   19709756.2114   19709755.724
        57.0004         53.0004
 17  2  4  1 43 30.0000000  0  8G06G05G19G24G25G12G29G02
 -14180090.74648 -11033371.24748  21974173.2804   21974179.6614   21974172.784
        52.0004         48.0004
  -6640596.73848  -5165638.89347  23642822.3904   23642828.4264   23642821.637
        48.0004         43.0004
  -5765910.60647  -4435666.41747  23775727.0724   23775731.5544   23775728.628
        47.0004         42.0004
 -14253531.77848 -11063913.32147  22184532.9144   22184539.2114   22184532.482
        51.0004         46.0004
  -9512422.76448  -7371913.52447  23082100.9314   23082107.7774   23082100.979
        49.0004         44.0004
 -24121175.06149 -18788008.43148  20448773.7364   20448775.9604   20448773.421
        57.0004         52.0004
  -4557561.23047  -3519219.16946  24058179.3174   24058183.6604   24058178.332
        45.0004         41.0004
 -26930214.43849 -20923449.43948  19711256.7224   19711257.6404   19711257.124
        58.0004         53.0004
 17  2  4  1 44  0.0000000  0  8G06G05G19G24G25G12G29G02
 -14100176.29948 -10971100.27448  21989380.4364   21989386.8514   21989380.192
        52.0004         48.0004
  -6729236.22248  -5234708.56847  23625955.3984   23625959.8424   23625955.157
        48.0004         43.0004
  -5698648.59147  -4383254.49947  23788527.3204   23788532.3034   23788528.000
        47.0004         42.0004
 -14177818.16348 -11004915.74147  22198940.9494   22198947.4734   22198940.492
        51.0004         46.0004
  -9603896.12548  -7443191.44747  23064693.5774   23064700.0214   23064693.611
        49.0004         44.0004
 -24159919.15449 -18818198.62748  20441401.1354   20441403.4624   20441400.480
        57.0004         52.0004
  -4629883.83247  -3575574.39646  24044414.1854   24044419.6444   24044414.478
        46.0004         41.0004
 -26921731.09849 -20916839.03948  19712871.0374   19712871.7394   19712871.325
        58.0004         53.0004
 17  2  4  1 44 30.0000000  0  8G06G05G19G24G25G12G29G02
 -14019965.01748 -10908598.00248  22004643.8404   22004650.1134   22004643.385
        52.0004         48.0004
  -6817776.77348  -5303701.14247  23609106.4014   23609111.8894   23609105.765
        48.0004         43.0004
  -5631354.53047  -4330817.61847  23801332.8134   23801337.9544   23801333.707
        47.0004         42.0004
 -14101758.19148 -10945648.26447  22213414.3364   22213421.1124   22213414.435
        51.0004         46.0004
  -9695252.06248  -7514377.87047  23047309.3504   23047314.9234   23047308.874
        49.0004         44.0004
 -24198286.66349 -18848095.38048  20434099.7434   20434102.0844   20434099.705
        57.0004         52.0004
  -4702124.91447  -3631866.10546  24030668.2854   24030672.7514   24030666.803
        46.0004         41.0004
 -26912655.10149 -20909766.83348  19714598.1554   19714598.9874   19714598.553
        58.0004         53.0004
 17  2  4  1 45  0.0000000  0  8G06G05G19G24G25G12G29G02
 -13939459.43848 -10845866.40648  22019964.0664   22019970.4484   22019963.432
        52.0004         48.0004
  -6906215.34048  -5372614.22847  23592277.3874   23592281.8534   23592275.662
        48.0004         43.0004
  -5564028.71847  -4278355.99547  23814144.3774   23814149.9694   23814145.383
        47.0004         42.0004
 -14025354.69348 -10886113.11847  22227953.9084   22227960.1434   22227953.376
        51.0004         47.0004
  -9786488.40048  -7585471.10647  23029947.6694   23029954.5194   23029947.701
        49.0004         44.0004
 -24236276.43349 -18877697.79548  20426870.6674   20426872.9684   20426870.531
        57.0004         52.0004
  -4774284.76847  -3688094.50546  24016938.6084   24016941.7914   24016937.100
        46.0004         41.0004
 -26902987.55949 -20902233.68048  19716437.6434   19716438.7244   19716438.251
        58.0004         53.0004
 17  2  4  1 45 30.0000000  0  8G06G05G19G24G25G12G29G02
 -13858662.18048 -10782907.52548  22035338.9664   22035345.5424   22035338.652
        52.0004         48.0004
  -6994549.52948  -5441446.00147  23575467.4414   23575471.9284   23575467.172
        48.0004         43.0004
  -5496671.06947  -4225869.58247  23826963.8314   23826966.7434   23826963.140
        47.0004         42.0004
 -13948610.87248 -10826312.77947  22242557.5644   22242563.9424   22242557.453
        51.0004         46.0004
  -9877603.01248  -7656469.47547  23012608.7034   23012615.3734   23012608.475
        49.0004         44.0004
 -24273886.31049 -18907004.18548  20419713.7304   20419716.2184   20419713.258
        57.0004         52.0004
  -4846363.71047  -3744259.87246  24003222.1154   24003226.0574   24003220.696
        46.0004         41.0004
 -26892729.89149 -20894240.69248  19718389.5644   19718390.7534   19718390.164
        58.0004         53.0004
 17  2  4  1 46  0.0000000  0  8G06G05G19G24G25G12G29G02
 -13777575.63648 -10719723.23848  22050769.2994   22050775.7454   22050768.832
        52.0004         48.0004
  -7082776.10448  -5510193.91047  23558678.8654   23558684.4394   23558678.492
        48.0004         43.0004
  -5429281.50847  -4173358.33747  23839787.3994   23839789.8054   23839786.976
        47.0004         42.0004
 -13871529.40348 -10766249.33347  22257225.9014   22257232.7124   22257225.296
        51.0004         46.0004
  -9968593.65548  -7727371.25747  22995293.7944   22995300.6024   22995294.021
        49.0004         44.0004
 -24311114.05649 -18936012.81448  20412629.5664   20412631.7864   20412629.200
        57.0004         52.0004
  -4918361.53447  -3800362.01946  23989518.5204   23989523.9454   23989519.508
        46.0004         41.0004
 -26881883.02949 -20885788.59648  19720453.8494   19720454.6914   19720454.278
        57.0004         53.0004
 17  2  4  1 46 30.0000000  0  8G06G05G19G24G25G12G29G02
 -13696202.42548 -10656315.57147  22066254.3164   22066261.0904   22066253.422
        52.0004         47.0004
  -7170892.46148  -5578855.93447  23541911.0884   23541914.9574   23541911.293
        48.0004         43.0004
  -5361860.46047  -4120822.51547  23852616.6804   23852618.4524   23852616.868
        47.0004         42.0004
 -13794113.27148 -10705925.12147  22271958.2554   22271964.4234   22271957.473
        51.0004         46.0004
 -10059458.25248  -7798174.80347  22978002.5854   22978009.0524   22978002.551
        49.0004         44.0004
 -24347957.39649 -18964721.90848  20405618.4094   20405620.7044   20405618.086
        57.0004         52.0004
  -4990278.53047  -3856401.17846  23975835.2604   23975839.8054   23975835.474
        46.0004         41.0004
 -26870448.24149 -20876878.37048  19722629.6624   19722630.8304   19722630.245
        57.0004         53.0004
 17  2  4  1 47  0.0000000  0  8G06G05G19G24G25G12G29G02
 -13614545.04748 -10592686.47247  22081793.2864   22081799.7574   22081792.587
        52.0004         47.0004
  -7258895.25148  -5647429.46747  23525164.1424   23525169.2254   23525164.085
        48.0004         43.0004
  -5294407.92947  -4068262.15147  23865452.1914   23865455.8324   23865453.442
        47.0004         42.0004
 -13716365.33648 -10645342.35247  22286752.6944   22286759.0264   22286751.861
        51.0004         46.0004
 -10150194.54248  -7868878.38047  22960736.4264   22960743.2164   22960735.814
        49.0004         44.0004
 -24384414.26449 -18993129.85048  20398680.9654   20398683.2994   20398680.686
        57.0004         52.0004
  -5062114.88847  -3912377.51846  23962163.4014   23962168.8454   23962163.318
        46.0004         41.0004
 -26858426.64049 -20867510.88748  19724917.4954   19724918.3974   19724917.914
        57.0004         53.0004
 17  2  4  1 47 30.0000000  0  8G06G05G19G24G25G12G29G02
 -13532606.12848 -10528837.98947  22097385.8504   22097392.0024   22097384.778
        52.0004         47.0004
  -7346781.67948  -5715912.31947  23508440.3984   23508445.2194   23508439.860
        48.0004         44.0004
  -5226924.03047  -4015677.34847  23878295.5334   23878299.5974   23878295.182
        47.0004         42.0004
 -13638288.86948 -10584503.58947  22301610.7184   22301616.5424   22301609.985
        51.0004         46.0004
 -10240800.40848  -7939480.32147  22943493.8914   22943500.7664   22943494.315
        49.0004         44.0004
 -24420482.57149 -19021235.02248  20391817.4374   20391819.6454   20391817.067
        57.0004         52.0004
  -5133870.70047  -3968291.09647  23948509.4964   23948514.8534   23948509.233
        46.0004         42.0004
 -26845819.25049 -20857686.94448  19727316.5404   19727317.4944   19727317.062
        57.0004         53.0004
 17  2  4  1 48  0.0000000  0  8G06G05G19G24G25G12G29G02
 -13450388.08748 -10464772.01647  22113031.2374   22113037.9474   22113030.651
        52.0004         47.0004
  -7434548.69548  -5784302.12847  23491738.3544   23491744.0214   23491737.736
        48.0004         44.0004
  -5159408.90547  -3963068.19747  23891142.2714   23891147.4204   23891143.551
        47.0004         43.0004
 -13559886.99548 -10523411.26547  22316529.3574   22316536.0634   22316528.737
        51.0004         46.0004
 -10331273.51548  -8009978.82247  22926278.0234   22926284.9424   22926278.161
        49.0004         44.0004
 -24456160.82149 -19049036.25548  20385027.9144   20385030.3414   20385027.718
        57.0004         52.0004
  -5205545.99647  -4024141.92347  23934870.0924   23934875.1764   23934869.744
        46.0004         42.0004
 -26832627.59349 -20847407.73148  19729826.6084   19729827.6264   19729827.243
        57.0004         53.0004
 17  2  4  1 48 30.0000000  0  8G06G05G19G24G25G12G29G02
 -13367893.62348 -10400490.64247  22128729.1484   22128735.9184   22128729.046
        52.0004         47.0004
  -7522193.34748  -5852596.60647  23475060.0194   23475064.6124   23475059.600
        48.0004         44.0004
  -5091862.55747  -3910434.73147  23903996.2574   23903999.1304   23903997.300
        47.0004         42.0004
 -13481162.37548 -10462067.44547  22331510.6104   22331516.3304   22331510.190
        50.0004         46.0004
 -10421611.75548  -8080372.22247  22909087.1714   22909094.1904   22909087.358
        49.0004         45.0004
 -24491446.36949 -19076531.48248  20378313.2904   20378315.7844   20378313.117
        57.0004         53.0004
  -5277140.90247  -4079930.10947  23921244.7524   23921250.0754   23921246.355
        46.0004         42.0004
 -26818852.93649 -20836674.23148  19732447.8684   19732448.9514   19732448.377
        57.0004         53.0004
 17  2  4  1 49  0.0000000  0  8G06G05G19G24G25G12G29G02
 -13285125.11148 -10335995.72147  22144479.7944   22144486.3634   22144479.603
        52.0004         47.0004
  -7609712.99848  -5920793.65147  23458405.6514   23458410.5724   23458405.283
        48.0004         44.0004
  -5024285.07347  -3857777.03547  23916856.0674   23916857.4764   23916857.054
        47.0004         42.0004
 -13402118.40948 -10400474.78547  22346552.2704   22346558.5904   22346551.455
        50.0004         46.0004
 -10511812.96748  -8150658.85847  22891922.0614   22891928.9694   22891922.542
        49.0004         44.0004
 -24526337.59749 -19103719.45448  20371673.6994   20371676.2424   20371673.554
        57.0004         53.0004
  -5348655.55647  -4135655.74547  23907638.3014   23907642.2434   23907638.092
        46.0004         42.0004
 -26804496.48549 -20825487.38648  19735179.9014   19735180.8704   19735180.433
        57.0004         53.0004
 17  2  4  1 49 30.0000000  0  8G06G05G19G24G25G12G29G02
 -13202085.16248 -10271289.29947  22160281.4944   22160288.0814   22160281.214
        52.0004         47.0004
  -7697104.53848  -5988890.88347  23441775.9714   23441780.7194   23441775.871
        49.0004         44.0004
  -4956676.52647  -3805095.09747  23929721.6724   23929722.7854   23929722.983
        47.0004         42.0004
 -13322757.90548 -10338635.49047  22361653.5964   22361660.5904   22361653.430
        50.0004         46.0004
 -10601874.82848  -8220836.90847  22874783.8344   22874790.6864   22874784.626
        49.0004         44.0004
 -24560832.77449 -19130598.81248  20365109.6704   20365112.0204   20365109.450
        57.0004         53.0004
  -5420090.32847  -4191319.17347  23894043.7004   23894048.3474   23894044.649
        47.0004         42.0004
 -26789559.40149 -20813848.10048  19738022.3134   19738023.3044   19738022.762
        57.0004         53.0004
 17  2  4  1 50  0.0000000  0  8G06G05G19G24G25G12G29G02
 -13118776.23348 -10206373.27847  22176135.3754   22176141.3324   22176134.804
        52.0004         47.0004
  -7784365.06348  -6056886.04447  23425171.2754   23425174.7524   23425170.492
        49.0004         44.0004
  -4889037.03547  -3752389.06647  23942592.0964   23942596.0854   23942594.222
        47.0004         43.0004
 -13243083.91148 -10276551.89947  22376815.0114   22376821.6994   22376814.885
        50.0004         45.0004
 -10691795.07048  -8290904.60147  22857673.7874   22857679.0094   22857673.739
        49.0004         45.0004
 -24594929.42049 -19157167.63048  20358621.3754   20358623.6404   20358620.829
        57.0004         53.0004
  -5491445.15947  -4246920.29647  23880464.3724   23880468.6344   23880464.851
        47.0004         42.0004
 -26774042.97249 -20801757.37248  19740975.0564   19740975.9864   19740975.423
        57.0004         53.0004
 17  2  4  1 50 30.0000000  0  8G06G05G19G24G25G12G29G02
 -13035200.91448 -10141249.67447  22192038.7284   22192045.2414   22192038.087
        52.0004         47.0004
  -7871491.71848  -6124776.87947  23408589.6844   23408595.3224   23408590.461
        49.0004         44.0004
  -4821366.53647  -3699658.87847  23955469.8844   23955473.6704   23955469.979
        47.0004         42.0004
 -13163099.26348 -10214226.24947  22392035.9984   22392042.4284   22392035.172
        50.0004         45.0004
 -10781571.47648  -8360860.21847  22840589.3214   22840595.1994   22840589.787
        49.0004         45.0004
 -24628625.60949 -19183424.39848  20352208.9824   20352211.4324   20352208.730
        57.0004         53.0004
  -5562719.90847  -4302459.00947  23866903.9034   23866907.0814   23866903.560
        47.0004         42.0004
 -26757949.07649 -20789216.67248  19744037.4604   19744038.4684   19744037.914
        57.0004         53.0004
 17  2  4  1 51  0.0000000  0  8G06G05G19G24G25G12G29G02
 -12951361.74848 -10075920.48547  22207993.0524   22207999.2974   22207991.900
        52.0004         47.0004
  -7958481.51448  -6192561.07647  23392038.3524   23392042.3374   23392036.663
        49.0004         44.0004
  -4753665.23547  -3646904.67847  23968353.0034   23968356.9984   23968354.611
        47.0004         43.0004
 -13082807.73148 -10151661.48647  22407314.7024   22407321.4164   22407314.787
        50.0004         45.0004
 -10871201.90748  -8430702.09247  22823532.7634   22823539.2234   22823533.071
        49.0004         45.0004
 -24661919.37949 -19209367.59948  20345873.4904   20345875.9304   20345873.179
        57.0004         53.0004
  -5633914.80847  -4357935.51547  23853354.3944   23853357.9424   23853355.050
        47.0004         42.0004
 -26741278.63049 -20776226.71748  19747209.8134   19747210.8164   19747210.332
        57.0004         53.0004
 17  2  4  1 51 30.0000000  0  8G06G05G19G24G25G12G29G02
 -12867261.17248 -10010387.59247  22223996.7034   22224003.2714   22223996.217
        52.0004         47.0004
  -8045331.52548  -6260236.34447  23375510.1364   23375515.3164   23375509.548
        49.0004         45.0004
  -4685933.06247  -3594126.40247  23981240.9514   23981246.9194   23981242.078
        47.0004         42.0004
 -13002211.93848 -10088859.60847  22422651.4444   22422658.8184   22422651.105
        50.0004         45.0004
 -10960683.98248  -8500428.36147  22806505.8044   22806511.9204   22806504.488
        50.0004         45.0004
 -24694808.96549 -19234995.84748  20339614.7354   20339617.1834   20339614.525
        57.0004         53.0004
  -5705030.31647  -4413350.15847  23839820.5414   23839826.2034   23839820.481
        47.0004         42.0004
 -26724033.16349 -20762788.68748  19750491.5324   19750492.4984   19750492.085
        57.0004         53.0004
 17  2  4  1 52  0.0000000  0  8G06G05G19G24G25G12G29G02
 -12782901.75848  -9944653.01247  22240049.9144   22240056.0904   22240049.598
        52.0004         47.0004
  -8132038.76848  -6327800.37747  23359010.0944   23359015.3804   23359009.830
        49.0004         44.0004
  -4618170.19247  -3541324.23647  23994136.1764   23994138.5104   23994137.741
        47.0004         42.0004
 -12921314.30748 -10025822.55147  22438045.8154   22438052.0544   22438045.570
        50.0004         45.0004
 -11050015.48348  -8570037.30247  22789506.5314   22789512.6384   22789506.476
        50.0004         45.0004
 -24727292.15649 -19260307.42348  20333433.3044   20333435.8974   20333433.129
        57.0004         53.0004
  -5776066.23947  -4468702.75847  23826304.5254   23826307.8564   23826304.509
        47.0004         42.0004
 -26706213.98649 -20748903.61048  19753882.4754   19753883.3794   19753882.996
        57.0004         53.0004
 17  2  4  1 52 30.0000000  0  8G06G05G19G24G25G12G29G02
 -12698286.01448  -9878718.69647  22256151.9034   22256158.1084   22256151.049
        52.0004         47.0004
  -8218599.85048  -6395250.51747  23342538.3124   23342543.2784   23342537.939
        49.0004         44.0004
  -4550376.59647  -3488498.11747  24007036.7864   24007040.3984   24007038.754
        47.0004         42.0004
 -12840118.48148  -9962553.12747  22453497.0274   22453504.3444   22453496.761
        50.0004         45.0004
 -11139194.16148  -8639527.15547  22772535.3414   22772542.4984   22772535.729
        50.0004         45.0004
 -24759367.02049 -19285300.82448  20327329.9664   20327332.2714   20327329.474
        57.0004         53.0004
  -5847023.31247  -4523993.93047  23812800.6824   23812805.3004   23812799.722
        47.0004         42.0004
 -26687822.53049 -20734572.60348  19757382.3244   19757383.1204   19757382.846
        57.0004         53.0004
 17  2  4  1 53  0.0000000  0  8G06G05G19G24G25G12G29G02
 -12613416.49548  -9812586.62547  22272301.6924   22272308.5774   22272300.999
        52.0004         47.0004
  -8305012.76448  -6462585.20547  23326094.2984   23326098.9514   23326093.727
        49.0004         45.0004
  -4482552.37847  -3435648.12347  24019943.9284   24019949.7364   24019945.865
        47.0004         43.0004
 -12758627.44448  -9899053.68047  22469004.5254   22469011.0434   22469004.036
        49.0004         45.0004
 -11228217.66248  -8708896.10047  22755595.7064   22755601.5064   22755594.960
        50.0004         45.0004
 -24791031.38449 -19309974.35348  20321304.2204   20321306.6814   20321303.964
        57.0004         53.0004
  -5917900.83547  -4579223.11447  23799314.6624   23799318.2754   23799314.121
        47.0004         42.0004
 -26668860.33149 -20719796.85948  19760990.4944   19760991.7074   19760991.125
        57.0004         53.0004
 17  2  4  1 53 30.0000000  0  8G06G05G19G24G25G12G29G02
 -12528295.63048  -9746258.70847  22288499.9134   22288506.5974   22288499.081
        52.0004         47.0004
  -8391273.87148  -6529801.59347  23309679.7134   23309683.3834   23309678.988
        49.0004         45.0004
  -4414697.52747  -3382774.27047  24032857.9684   24032859.7604   24032858.982
        47.0004         43.0004
 -12676844.18848  -9835326.51347  22484567.6274   22484574.3914   22484567.022
        49.0004         45.0004
 -11317083.74448  -8778142.37947  22738684.5544   22738690.3994   22738684.657
        50.0004         45.0004
 -24822283.61649 -19334326.73948  20315357.1204   20315359.4404   20315356.829
        57.0004         53.0004
  -5988699.23247  -4634390.65547  23785840.1294   23785844.6724   23785840.046
        47.0004         42.0004
 -26649328.63649 -20704577.35448  19764707.4144   19764708.1934   19764707.823
        57.0004         53.0004
 17  2  4  1 54  0.0000000  0  8G06G05G19G24G25G12G29G02
 -12442925.91548  -9679736.88247  22304744.9644   22304751.5324   22304744.624
        52.0004         47.0004
  -8477380.37948  -6596897.52547  23293294.9834   23293298.1324   23293293.660
        49.0004         45.0004
  -4346812.13247  -3329876.68047  24045775.5444   24045777.9434   24045776.595
        47.0004         43.0004
 -12594772.05648  -9771374.26447  22500185.2114   22500191.4544   22500184.704
        49.0004         45.0004
 -11405790.13848  -8847264.22447  22721804.2694   22721810.7914   22721804.506
        50.0004         46.0004
 -24853121.80049 -19358356.49148  20309488.8364   20309491.2974   20309488.664
        57.0004         53.0004
  -6059418.50947  -4689496.52247  23772384.6244   23772387.5364   23772383.744
        46.0004         42.0004
 -26629229.18749 -20688915.44348  19768532.1794   19768533.1574   19768532.765
        57.0004         53.0004
 17  2  4  1 54 30.0000000  0  8G06G05G19G24G25G12G29G02
 -12357309.99048  -9613023.20547  22321036.8594   22321043.7594   22321036.478
        51.0004         47.0004
  -8563329.66348  -6663870.94047  23276938.1724   23276942.7214   23276937.303
        49.0004         45.0004
  -4278896.12547  -3276955.19447  24058699.4684   24058702.9974   24058700.715
        47.0004         43.0004
 -12512413.91148  -9707199.13847  22515858.1254   22515863.1724   22515856.900
        49.0004         45.0004
 -11494334.51648  -8916259.81647  22704955.1124   22704960.7764   22704954.767
        50.0004         46.0004
 -24883543.90349 -19382062.02548  20303699.8294   20303702.0544   20303699.446
        57.0004         53.0004
  -6130058.88747  -4744540.92747  23758940.8384   23758945.6124   23758941.160
        47.0004         42.0004
 -26608563.48749 -20672812.29748  19772464.7234   19772465.5244   19772465.223
        57.0004         53.0004
 17  2  4  1 55  0.0000000  0  8G06G05G19G24G25G12G29G02
 -12271450.14148  -9546119.45947  22337375.8624   22337382.7214   22337374.938
        51.0004         47.0004
  -8649118.50948  -6730719.33247  23260612.9614   23260617.6884   23260612.573
        49.0004         45.0004
  -4210949.49347  -3224009.79747  24071627.9874   24071631.8104   24071628.728
        47.0004         42.0004
 -12429772.97748  -9642803.66747  22531582.7464   22531590.6184   22531583.344
        49.0004         45.0004
 -11582714.47048  -8985127.29947  22688137.1494   22688142.7104   22688136.555
        50.0004         46.0004
 -24913547.46649 -19405441.41948  20297990.2194   20297992.4804   20297989.995
        57.0004         53.0004
  -6200620.46247  -4799523.93047  23745514.0184   23745518.1514   23745514.008
        46.0004         42.0004
 -26587332.93449 -20656269.01048  19776504.8154   19776505.6834   19776505.235
        57.0004         53.0004
 17  2  4  1 55 30.0000000  0  8G06G05G19G24G25G12G29G02
 -12185348.99148  -9479027.67847  22353759.8644   22353766.7904   22353759.252
        51.0004         47.0004
  -8734743.85848  -6797440.32047  23244318.4214   23244322.4524   23244318.284
        50.0004         45.0004
  -4142972.44547  -3171040.74547  24084563.8364   24084567.4214   24084564.674
        47.0004         42.0004
 -12346852.09348  -9578190.05347  22547362.9444   22547370.1494   22547362.437
        49.0004         45.0004
 -11670927.79248  -9053864.92947  22671350.0414   22671356.7504   22671350.174
        50.0004         46.0004
 -24943131.34349 -19428493.78648  20292360.6224   20292363.0884   20292360.246
        57.0004         53.0004
  -6271103.39447  -4854445.64747  23732100.5134   23732106.1684   23732101.492
        46.0004         42.0004
 -26565539.16849 -20639286.85248  19780652.0364   19780652.8624   19780652.523
        57.0004         53.0004
 17  2  4  1 56  0.0000000  0  8G06G05G19G24G25G12G29G02
 -12099009.10448  -9411749.87947  22370190.4564   22370196.5024   22370189.698
        51.0004         47.0004
  -8820202.75548  -6864031.59947  23228056.4094   23228060.9994   23228055.842
        49.0004         45.0004
  -4074964.85047  -3118047.88847  24097506.0224   24097509.6744   24097506.725
        47.0004         42.0004
 -12263654.52848  -9513360.82847  22563194.6124   22563201.3624   22563194.392
        49.0004         45.0004
 -11758972.17848  -9122470.92147  22654596.2714   22654602.2574   22654595.805
        50.0004         46.0004
 -24972293.48549 -19451217.52548  20286811.1094   20286813.4884   20286810.772
        57.0004         53.0004
  -6341507.83247  -4909306.18847  23718704.8694   23718708.0394   23718703.793
        46.0004         42.0004
 -26543183.90449 -20621867.16348  19784906.0814   19784906.9744   19784906.436
        57.0004         53.0004
 17  2  4  1 56 30.0000000  0  8G06G05G19G24G25G12G29G02
 -12012432.94148  -9344287.96647  22386665.3454   22386671.8954   22386665.094
        51.0004         46.0004
  -8905492.02248  -6930490.71647  23211826.3574   23211832.3394   23211826.181
        50.0004         45.0004
  -4006926.70547  -3065031.24647  24110453.2254   24110455.9944   24110452.791
        47.0004         42.0004
 -12180183.47448  -9448318.50947  22579078.9194   22579086.3464   22579078.952
        49.0004         45.0004
 -11846845.28748  -9190943.45047  22637874.4554   22637880.7924   22637873.982
        51.0004         46.0004
 -25001031.75449 -19473610.98148  20281342.5514   20281344.7624   20281342.255
        57.0004         53.0004
  -6411833.90747  -4964105.67247  23705321.2244   23705324.7334   23705320.823
        46.0004         42.0004
 -26520268.43749 -20604010.95448  19789266.6764   19789267.5594   19789267.166
        57.0004         53.0004
 17  2  4  1 57  0.0000000  0  8G06G05G19G24G25G12G29G02
 -11925622.79648  -9276643.73347  22403184.9714   22403191.6554   22403184.353
        51.0004         46.0004
  -8990609.36448  -6996815.83947  23195628.9674   23195633.4824   23195628.747
        50.0004         45.0004
  -3938857.94447  -3011990.70947  24123406.5664   24123410.5634   24123406.234
        47.0004         42.0004
 -12096441.76248  -9383065.29247  22595013.8964   22595021.1594   22595013.845
        49.0004         45.0004
 -11934544.63848  -9259280.58647  22621185.4854   22621192.4094   22621185.478
        51.0004         46.0004
 -25029344.24849 -19495672.66148  20275954.7914   20275957.1764   20275954.500
        57.0004         53.0004
  -6482081.55347  -5018844.04547  23691953.0634   23691957.1904   23691952.945
        46.0004         42.0004
 -26496794.49849 -20585719.57648  19793733.6624   19793734.5504   19793734.057
        57.0004         53.0004
 17  2  4  1 57 30.0000000  0  8G06G05G19G24G25G12G29G02
 -11838581.32348  -9208819.24047  22419748.7034   22419754.8464   22419747.506
        51.0004         46.0004
  -9075551.47748  -7063004.42447  23179464.3574   23179469.8774   23179464.222
        50.0004         45.0004
  -3870758.91047  -2958926.57847  24136364.5134   24136369.8124   24136365.435
        47.0004         42.0004
 -12012432.75448  -9317603.78247  22611000.5574   22611007.1994   22610999.801
        49.0004         45.0004
 -12022068.07848  -9327480.64547  22604530.4424   22604536.8134   22604530.311
        51.0004         46.0004
 -25057228.85549 -19517400.92248  20270648.5674   20270650.8244   20270648.252
        57.0004         53.0004
  -6552251.14447  -5073521.59347  23678600.7184   23678604.4384   23678599.567
        46.0004         42.0004
 -26472763.35949 -20566994.01648  19798306.7974   19798307.7204   19798307.106
        57.0004         53.0004
 17  2  4  1 58  0.0000000  0  8G06G05G19G24G25G12G29G02
 -11751310.99248  -9140816.41847  22436354.9754   22436361.4104   22436355.029
        51.0004         46.0004
  -9160315.27848  -7129054.06247  23163335.1264   23163339.7634   23163334.424
        50.0004         45.0004
  -3802629.43447  -2905838.76147  24149330.4734   24149333.4054   24149330.392
        47.0004         42.0004
 -11928159.54648  -9251936.39547  22627037.9744   22627044.8104   22627037.460
        49.0004         45.0004
 -12109413.11448  -9395541.69647  22587909.3384   22587915.5884   22587909.244
        51.0004         46.0004
 -25084684.43749 -19538794.87548  20265423.8474   20265426.3014   20265423.657
        57.0004         53.0004
  -6622342.47147  -5128138.15946  23665262.8354   23665267.7164   23665261.442
        46.0004         41.0004
 -26448177.01249 -20547835.82348  19802985.1704   19802986.3884   19802985.640
        57.0004         53.0004
 17  2  4  1 58 30.0000000  0  8G06G05G19G24G25G12G29G02
 -11663814.25948  -9072637.17747  22453005.0774   22453012.2894   22453005.206
        51.0004         46.0004
  -9244898.45348  -7194962.96847  23147239.6624   23147243.5324   23147239.160
        50.0004         45.0004
  -3734469.15247  -2852726.95447  24162301.8404   24162303.9604   24162302.844
        47.0004         43.0004
 -11843625.19948  -9186065.55247  22643124.0554   22643131.0484   22643123.566
        49.0004         44.0004
 -12196577.49948  -9463461.96947  22571322.1444   22571328.6464   22571322.400
        51.0004         46.0004
 -25111708.97249 -19559852.95148  20260281.3114   20260283.6974   20260280.987
        57.0004         53.0004
  -6692355.79147  -5182693.94146  23651938.8034   23651944.0034   23651939.134
        46.0004         41.0004
 -26423037.23149 -20528246.38648  19807769.2034   19807770.1814   19807769.661
        57.0004         53.0004
 17  2  4  1 59  0.0000000  0  8G06G05G19G24G25G12G29G02
 -11576093.55848  -9004283.42947  22469698.2724   22469704.6594   22469696.498
        50.0004         46.0004
  -9329297.52548  -7260728.39647  23131178.5524   23131183.5794   23131177.676
        50.0004         45.0004
  -3666278.20047  -2799591.20547  24175277.3594   24175280.1154   24175278.331
        47.0004         42.0004
 -11758832.39448  -9119993.28347  22659259.4034   22659266.1054   22659259.104
        49.0004         44.0004
 -12283558.78548  -9531239.57247  22554770.4834   22554776.7524   22554769.724
        51.0004         46.0004
 -25138300.05049 -19580573.26648  20255221.1654   20255223.5924   20255220.896
        58.0004         53.0004
  -6762291.38547  -5237189.16247  23638631.4644   23638635.3944   23638630.280
        46.0004         42.0004
 -26397345.80249 -20508227.09448  19812658.1714   19812658.8984   19812658.440
        57.0004         53.0004
 17  2  4  1 59 30.0000000  0  8G06G05G19G24G25G12G29G02
 -11488151.41948  -8935757.11547  22486432.8774   22486439.5694   22486432.557
        50.0004         46.0004
  -9413509.45948  -7326348.00947  23115153.2344   23115158.1224   23115152.430
        50.0004         45.0004
  -3598056.93647  -2746431.87147  24188258.7744   24188262.1384   24188259.651
        47.0004         42.0004
 -11673784.48648  -9053722.25047  22675444.0594   22675450.6874   22675443.412
        49.0004         45.0004
 -12370354.62848  -9598872.67947  22538253.4874   22538260.4484   22538253.604
        51.0004         46.0004
 -25164456.27249 -19600954.73848  20250243.8474   20250246.1854   20250243.541
        58.0004         53.0004
  -6832149.15247  -5291623.73147  23625336.9214   23625342.1574   23625336.626
        46.0004         42.0004
 -26371104.21449 -20487779.10748  19817651.5774   19817652.7374   19817652.100
        57.0004         53.0004
 17  2  4  2  0  0.0000000  0  8G06G05G19G24G25G12G29G02
 -11399990.17348  -8867060.08547  22503210.0074   22503216.2014   22503208.729
        50.0004         46.0004
  -9497531.52848  -7391819.68247  23099165.0914   23099169.3824   23099163.825
        50.0004         45.0004
  -3529805.10347  -2693248.65747  24201246.1894   24201251.4154   24201246.717
        47.0004         42.0004
 -11588484.63048  -8987254.89147  22691676.7914   22691682.8454   22691675.304
        49.0004         45.0004
 -12456962.62048  -9666359.40847  22521773.0154   22521778.4784   22521772.702
        51.0004         46.0004
 -25190175.22449 -19620995.47848  20245349.6674   20245352.0454   20245349.300
        58.0004         53.0004
  -6901929.16447  -5345997.74047  23612058.6504   23612062.7244   23612058.227
        46.0004         42.0004
 -26344313.77149 -20466903.43948  19822749.8374   19822750.7254   19822750.352
        57.0004         53.0004
 17  2  4  2  0 30.0000000  0  8G06G05G19G24G25G12G29G02
 -11311612.38348  -8798194.30547  22520027.6274   22520033.7664   22520026.463
        50.0004         46.0004
  -9581361.02448  -7457141.29047  23083212.4284   23083217.1084   23083212.127
        50.0004         45.0004
  -3461522.66047  -2640041.61746  24214239.8444   24214242.7574   24214242.416
        46.0004         41.0004
 -11502936.60148  -8920594.14847  22707954.8104   22707962.2214   22707954.691
        49.0004         44.0004
 -12543380.47848  -9733697.97647  22505327.5134   22505333.9524   22505327.334
        51.0004         46.0004
 -25215455.86949 -19640694.68348  20240538.9534   20240541.3224   20240538.712
        58.0004         53.0004
  -6971631.99147  -5400311.56647  23598795.0064   23598799.1974   23598794.598
        46.0004         42.0004
 -26316976.47649 -20445601.65248  19827951.7424   19827952.8544   19827952.409
        57.0004         53.0004
 17  2  4  2  1  0.0000000  0  8G06G05G19G24G25G12G29G02
 -11223020.45348  -8729161.66947  22536886.1804   22536892.7024   22536885.336
        50.0004         46.0004
  -9664994.69948  -7522310.31447  23067297.2504   23067301.2804   23067296.625
        50.0004         45.0004
  -3393209.43347  -2586810.64747  24227240.7434   24227243.8334   24227242.040
        47.0004         42.0004
 -11417142.74548  -8853741.85247  22724281.0134   22724288.7544   22724280.730
        49.0004         45.0004
 -12629605.66348  -9800886.41847  22488919.4794   22488926.0024   22488919.549
        51.0004         47.0004
 -25240296.02949 -19660050.65248  20235811.9954   20235814.4944   20235811.649
        58.0004         53.0004
  -7041257.44947  -5454565.11547  23585545.5924   23585549.7324   23585545.006
        46.0004         42.0004
 -26289094.36249 -20423875.33548  19833257.4964   19833258.6984   19833258.058
        57.0004         53.0004
 17  2  4  2  1 30.0000000  0  8G06G05G19G24G25G12G29G02
 -11134216.88848  -8659964.12347  22553784.3514   22553791.0624   22553783.826
        50.0004         46.0004
  -9748429.58148  -7587324.43247  23051419.8134   23051424.6124   23051419.525
        50.0004         45.0004
  -3324865.59847  -2533555.75246  24240245.0344   24240250.6064   24240246.181
        46.0004         41.0004
 -11331106.41948  -8786700.63147  22740653.6414   22740660.3934   22740653.471
        49.0004         45.0004
 -12715635.91148  -9867922.95447  22472548.4414   22472555.8464   22472548.591
        51.0004         46.0004
 -25264693.63349 -19679061.77348  20231169.5034   20231171.6224   20231169.213
        58.0004         53.0004
  -7110805.36047  -5508758.23447  23572310.5144   23572315.0454   23572310.982
        46.0004         42.0004
 -26260669.00949 -20401725.71048  19838666.7934   19838667.8714   19838667.306
        57.0004         52.0004
 17  2  4  2  2  0.0000000  0  8G06G05G19G24G25G12G29G02
 -11045204.05048  -8590603.50047  22570722.6914   22570730.2254   22570722.637
        50.0004         46.0004
  -9831662.74148  -7652181.37947  23035580.8684   23035585.3944   23035580.739
        50.0004         45.0004
  -3256491.13147  -2480277.07147  24253257.1554   24253260.2714   24253257.696
        46.0004         42.0004
 -11244831.02648  -8719473.11247  22757071.3664   22757079.1784   22757071.142
        49.0004         44.0004
 -12801468.73548  -9934805.65847  22456215.0294   22456221.3174   22456215.601
        51.0004         47.0004
 -25288647.15549 -19697726.85748  20226611.0864   20226613.5404   20226610.723
        58.0004         53.0004
  -7180275.86147  -5562891.04447  23559090.7654   23559094.9814   23559090.637
        46.0004         42.0004
 -26231702.06549 -20379154.06848  19844179.1654   19844180.1024   19844179.512
        57.0004         52.0004
 17  2  4  2  2 30.0000000  0  8G06G05G19G24G25G12G29G02
 -10955984.30348  -8521081.65547  22587701.5004   22587707.8504   22587700.449
        50.0004         46.0004
  -9914691.03948  -7716878.68547  23019780.5584   23019785.9814   23019780.495
        50.0004         45.0004
  -3188085.94347  -2426974.32446  24266272.2474   24266277.6314   24266273.296
        46.0004         41.0004
 -11158318.86848  -8652061.11647  22773534.6294   22773541.1784   22773533.848
        49.0004         45.0004
 -12887101.63448 -10001532.57547  22439919.6884   22439926.2234   22439919.979
        51.0004         47.0004
 -25312154.78149 -19716044.48848  20222137.6804   20222139.9664   20222137.473
        58.0004         53.0004
  -7249669.13747  -5616963.67647  23545885.7844   23545890.0604   23545885.787
        47.0004         42.0004
 -26202195.36549 -20356161.83648  19849794.0414   19849794.9694   19849794.501
        57.0004         52.0004
 17  2  4  2  3  0.0000000  0  8G06G05G19G24G25G12G29G02
 -10866560.29548  -8451400.65147  22604718.2104   22604724.8804   22604717.423
        50.0004         46.0004
  -9997512.06248  -7781414.48647  23004020.9284   23004026.0834   23004020.656
        50.0004         46.0004
  -3119649.78747  -2373647.55246  24279296.0344   24279300.5424   24279297.747
        46.0004         41.0004
 -11071574.04848  -8584467.80747  22790041.1834   22790047.7124   22790040.352
        49.0004         44.0004
 -12972532.45148 -10068102.02347  22423663.3094   22423669.2604   22423662.693
        51.0004         47.0004
 -25335214.83649 -19734013.36748  20217749.6154   20217751.9494   20217749.363
        58.0004         53.0004
  -7318985.83347  -5670976.64747  23532694.4784   23532699.2814   23532695.941
        47.0004         42.0004
 -26172150.76449 -20332750.46048  19855511.3074   19855512.2414   19855511.835
        57.0004         52.0004
 17  2  4  2  3 30.0000000  0  8G06G05G19G24G25G12G29G02
 -10776934.22048  -8381562.17647  22621773.4314   22621779.7624   22621773.136
        50.0004         45.0004
 -10080122.31748  -7845786.06047  22988300.9714   22988305.4094   22988300.627
        50.0004         45.0004
  -3051182.70247  -2320296.65146  24292325.1344   24292330.0744   24292326.227
        46.0004         41.0004
 -10984598.85448  -8516695.00347  22806591.8324   22806599.1634   22806591.097
        49.0004         44.0004
 -13057758.52148 -10134511.93447  22407444.8944   22407450.6184   22407445.093
        51.0004         47.0004
 -25357825.35449 -19751631.95648  20213446.9504   20213449.3694   20213446.741
        58.0004         53.0004
  -7388225.46347  -5724929.54647  23519519.9084   23519523.7444   23519518.684
        47.0004         42.0004
 -26141570.10449 -20308921.37448  19861330.4824   19861331.5184   19861331.050
        57.0004         52.0004
 17  2  4  2  4  0.0000000  0  8G06G05G19G24G25G12G29G02
 -10687108.67948  -8311568.29047  22638867.3434   22638872.7424   22638866.068
        50.0004         46.0004
 -10162519.08548  -7909991.26847  22972620.9834   22972625.7814   22972621.223
        50.0004         46.0004
  -2982684.62447  -2266921.58746  24305360.0724   24305364.6854   24305361.385
        45.0004         41.0004
 -10897396.87248  -8448745.46847  22823185.9704   22823193.1424   22823185.580
        49.0004         44.0004
 -13142777.59648 -10200760.54247  22391266.2054   22391272.5894   22391266.493
        51.0004         47.0004
 -25379984.41949 -19768898.76548  20209230.2544   20209232.5754   20209229.840
        58.0004         53.0004
  -7457388.26847  -5778822.59647  23506358.6114   23506362.3934   23506357.199
        47.0004         42.0004
 -26110455.25049 -20284676.03448  19867251.7524   19867252.6384   19867251.918
        57.0004         52.0004
 17  2  4  2  4 30.0000000  0  8G06G05G19G24G25G12G29G02
 -10597085.92448  -8241420.72147  22655997.2984   22656004.9574   22655996.671
        50.0004         45.0004
 -10244700.08548  -7974028.35347  22956982.6184   22956987.2874   22956981.976
        50.0004         46.0004
  -2914155.34247  -2213522.21147  24318401.2814   24318405.8704   24318401.868
        46.0004         42.0004
 -10809971.40748  -8380621.80047  22839822.5384   22839828.8034   22839821.954
        49.0004         44.0004
 -13227587.04948 -10266845.81047  22375128.0924   22375133.8054   22375127.649
        51.0004         47.0004
 -25401690.41249 -19785812.53248  20205099.6964   20205101.9664   20205099.490
        58.0004         53.0004
  -7526474.17547  -5832655.71947  23493211.1474   23493215.1784   23493210.458
        47.0004         42.0004
 -26078807.98749 -20260015.83448  19873273.6874   19873274.7714   19873274.431
        57.0004         52.0004
 17  2  4  2  5  0.0000000  0  8G06G05G19G24G25G12G29G02
 -10506868.62948  -8171121.56847  22673165.2124   22673171.8644   22673164.148
        50.0004         45.0004
 -10326661.60648  -8037894.42947  22941385.9794   22941389.9674   22941385.472
        50.0004         46.0004
  -2845595.35347  -2160098.88847  24331448.1354   24331452.1534   24331449.073
        46.0004         42.0004
 -10722325.23048  -8312326.15347  22856501.2924   22856508.2634   22856500.530
        49.0004         44.0004
 -13312184.67548 -10332766.01647  22359029.2144   22359035.8224   22359029.393
        51.0004         47.0004
 -25422942.35649 -19802372.49448  20201055.5874   20201058.0154   20201055.277
        58.0004         53.0004
  -7595483.50347  -5886429.18447  23480079.7784   23480083.3324   23480079.620
        47.0004         42.0004
 -26046630.45449 -20234942.43248  19879397.0494   19879398.0904   19879397.355
        57.0004         52.0004
 17  2  4  2  5 30.0000000  0  8G06G05G19G24G25G12G29G02
 -10416458.87448  -8100672.44547  22690369.9034   22690376.6844   22690368.748
        50.0004         46.0004
 -10408401.08148  -8101587.47747  22925831.1304   22925835.7804   22925830.979
        50.0004         46.0004
  -2777004.07247  -2106651.24346  24344500.3764   24344505.0764   24344500.619
        46.0004         41.0004
 -10634461.80848  -8243861.22247  22873220.6624   22873228.1104   22873220.319
        49.0004         44.0004
 -13396567.72448 -10398519.02447  22342971.8164   22342977.8354   22342971.471
        51.0004         47.0004
 -25443737.76949 -19818576.71848  20197098.3944   20197100.6934   20197098.065
        58.0004         53.0004
  -7664416.59447  -5940143.23747  23466961.5984   23466966.0424   23466962.459
        47.0004         42.0004
 -26013924.00349 -20209456.88948  19885620.8194   19885621.7404   19885621.376
        57.0004         52.0004
 17  2  4  2  6  0.0000000  0  8G06G05G19G24G25G12G29G02
 -10325859.23148  -8030075.34747  22707610.3914   22707616.8884   22707609.493
        50.0004         46.0004
 -10489915.61248  -8165105.24647  22910320.2104   22910324.4164   22910318.977
        50.0004         46.0004
  -2708381.72347  -2053179.25246  24357557.0114   24357563.7304   24357558.914
        46.0004         41.0004
 -10546384.31048  -8175229.48347  22889981.7014   22889988.8544   22889981.324
        48.0004         44.0004
 -13480734.03348 -10464103.14047  22326955.8064   22326961.9584   22326955.443
        52.0004         47.0004
 -25464075.05049 -19834423.95548  20193228.3784   20193230.6834   20193228.137
        58.0004         53.0004
  -7733273.00247  -5993797.54347  23453859.2334   23453861.6384   23453859.160
        47.0004         42.0004
 -25980691.10349 -20183561.12348  19891944.8524   19891945.8754   19891945.393
        57.0004         52.0004
 17  2  4  2  6 30.0000000  0  9G06G05G19G24G25G12G29G20G02
 -10235072.10348  -7959332.16947  22724886.2274   22724893.4504   22724886.079
        50.0004         45.0004
 -10571202.18748  -8228445.38047  22894851.8984   22894855.8494   22894850.968
        51.0004         46.0004
  -2639728.10347  -1999683.08247  24370623.5174   24370627.1284   24370624.623
        46.0004         42.0004
 -10458095.49448  -8106433.07747  22906782.6054   22906789.5534   22906782.184
        48.0004         43.0004
 -13564681.00448 -10529516.34047  22310980.8704   22310986.7574   22310980.876
        52.0004         47.0004
 -25483952.46749 -19849912.85648  20189445.7764   20189448.0534   20189445.417
        58.0004         53.0004
  -7802053.18347  -6047392.45347  23440770.1714   23440774.9374   23440770.019
        47.0004         42.0004
   -369792.73847   -246155.24845  25116227.7024   25116240.4404   25116228.101
        42.0004         34.0004
 -25946933.60549 -20157256.58048  19898368.8734   19898369.6814   19898369.052
        57.0004         52.0004
 17  2  4  2  7  0.0000000  0  9G06G05G19G24G25G12G29G20G02
 -10144099.72248  -7888444.64047  22742198.0334   22742205.3354   22742197.487
        50.0004         46.0004
 -10652257.68048  -8291605.46647  22879426.7914   22879432.2144   22879426.907
        51.0004         46.0004
  -2571043.14147  -1946162.31746  24383693.7344   24383697.9954   24383694.065
        46.0004         41.0004
 -10369598.88948  -8037474.75547  22923622.8834   22923629.6654   22923622.017
        48.0004         43.0004
 -13648406.18248 -10594756.71647  22295048.1664   22295054.2854   22295048.377
        52.0004         47.0004
 -25503367.95549 -19865041.81248  20185751.1644   20185753.4974   20185750.943
        58.0004         53.0004
  -7870756.77347  -6100927.69147  23427696.7144   23427699.9784   23427697.106
        47.0004         42.0004
   -471520.44146   -325423.23245  25096866.5004   25096879.1904   25096869.347
        39.0004         33.0004
 -25912653.16749 -20130544.55348  19904891.9984   19904893.0354   19904892.622
        57.0004         52.0004
 17  2  4  2  7 30.0000000  0  9G06G05G19G24G25G12G29G20G02
 -10052944.66948  -7817414.76847  22759543.6904   22759550.7484   22759543.006
        50.0004         45.0004
 -10733079.20348  -8354583.22947  22864046.9754   22864051.7204   22864046.716
        51.0004         46.0004
  -2502326.62747  -1892617.09746  24396770.0844   24396774.3204   24396770.334
        45.0004         41.0004
 -10280897.17848  -7968356.61747  22940502.3054   22940509.7384   22940501.878
        48.0004         43.0004
 -13731907.15548 -10659822.39547  22279158.7074   22279165.2824   22279158.954
        52.0004         47.0004
 -25522320.74149 -19879810.22248  20182144.6854   20182146.9304   20182144.302
        58.0004         53.0004
  -7939384.25147  -6154403.61447  23414637.9634   23414640.9624   23414636.990
        47.0004         43.0004
   -573369.11846   -404785.46045  25077488.8234   25077499.6494   25077489.332
        38.0004         34.0004
 -25877851.59749 -20103426.45048  19911514.4864   19911515.6624   19911515.022
        57.0004         52.0004
 17  2  4  2  8  0.0000000  0  9G06G05G19G24G25G12G29G20G02
  -9961609.23448  -7746244.34447  22776924.8714   22776931.9674   22776923.673
        50.0004         45.0004
 -10813663.85648  -8417376.42447  22848712.7634   22848716.9774   22848712.169
        51.0004         47.0004
  -2433578.77547  -1839047.34947  24409852.3874   24409857.5894   24409853.079
        46.0004         42.0004
 -10191994.04648  -7899081.54147  22957419.1094   22957427.6314   22957419.439
        48.0004         43.0004
 -13815181.47648 -10724711.45547  22263312.5554   22263318.6094   22263311.967
        52.0004         47.0004
 -25540808.48949 -19894216.26348  20178626.3684   20178628.6444   20178626.061
        58.0004         53.0004
  -8007935.82247  -6207820.39347  23401592.4524   23401595.8474   23401591.808
        47.0004         43.0004
   -675336.62346   -484240.25745  25058080.3194   25058098.4994   25058084.059
        38.0004         33.0004
 -25842531.33149 -20075904.16748  19918235.7414   19918236.8234   19918236.151
        56.0004         52.0004
 17  2  4  2  8 30.0000000  0  9G06G05G19G24G25G12G29G20G02
  -9870095.84348  -7674935.23447  22794337.9654   22794346.1284   22794338.045
        50.0004         45.0004
 -10894008.97448  -8479982.96147  22833423.4344   22833427.5444   22833422.562
        51.0004         46.0004
  -2364799.05247  -1785452.89346  24422940.6584   24422944.6444   24422940.778
        45.0004         40.0004
 -10102892.19148  -7829651.60347  22974375.3184   22974382.7324   22974375.330
        48.0004         43.0004
 -13898226.53848 -10789421.87748  22247508.8624   22247514.8904   22247508.933
        52.0004         48.0004
 -25558829.60449 -19908258.69349  20175197.0354   20175199.4904   20175196.893
        58.0004         54.0004
  -8076411.25947  -6261177.84447  23388562.0594   23388564.8684   23388561.536
        47.0004         43.0004
   -777420.07646   -563785.50545  25038659.7364   25038669.8084   25038661.670
        38.0004         33.0004
 -25806694.00749 -20047978.98248  19925055.4164   19925056.7014   19925055.947
        56.0004         52.0004
 17  2  4  2  9  0.0000000  0  8G06G05G19G24G25G12G29G02
  -9778406.66148  -7603489.16647  22811787.1084   22811794.0524   22811787.433
        50.0004         45.0004
 -10974111.66048  -8542400.60047  22818180.2764   22818184.3384   22818180.136
        51.0004         46.0004
  -2295987.89047  -1731833.78747  24436034.6304   24436039.2814   24436036.019
        46.0004         42.0004
 -10013594.86348  -7760069.34847  22991368.7144   22991375.5664   22991368.277
        48.0004         43.0004
 -13981040.03948 -10853951.85547  22231749.8334   22231756.3144   22231750.263
        52.0004         47.0004
 -25576382.80249 -19921936.51249  20171856.9174   20171859.3304   20171856.553
        58.0004         54.0004
  -8144810.89447  -6314476.22847  23375545.7094   23375549.4114   23375545.791
        47.0004         43.0004
 -25770341.81549 -20019652.60148  19931972.7434   19931974.0664   19931973.486
        56.0004         52.0004
 17  2  4  2  9 30.0000000  0  8G06G05G19G24G25G12G29G02
  -9686544.12148  -7531908.00847  22829269.0374   22829275.1654   22829267.946
        50.0004         45.0004
 -11053968.27148  -8604626.48447  22802983.3154   22802988.4764   22802983.191
        51.0004         47.0004
  -2227144.80347  -1678189.97846  24449135.1524   24449140.6514   24449136.242
        45.0004         40.0004
  -9924104.98448  -7690337.07047  23008397.8324   23008405.2704   23008397.424
        48.0004         43.0004
 -14063619.32948 -10918299.34048  22216035.9024   22216042.7214   22216035.570
        52.0004         48.0004
 -25593466.19549 -19935248.25049  20168606.0404   20168608.3104   20168605.647
        58.0004         54.0004
  -8213134.42347  -6367715.31847  23362544.2434   23362547.2604   23362543.927
        47.0004         43.0004
 -25733476.72649 -19990926.56248  19938988.1514   19938989.2974   19938988.667
        56.0004         52.0004
 17  2  4  2 10  0.0000000  0  8G06G05G19G24G25G12G29G02
  -9594510.64448  -7460193.64747  22846781.4894   22846788.9544   22846781.353
        50.0004         45.0004
 -11133576.94348  -8666659.18047  22787834.6024   22787839.1034   22787834.947
        51.0004         47.0004
  -2158269.68747  -1624521.03046  24462243.1774   24462244.9124   24462244.236
        45.0004         41.0004
  -9834426.39848  -7620457.73347  23025463.0584   23025470.1854   23025462.303
        48.0004         43.0004
 -14145962.03948 -10982462.47048  22200366.2364   22200372.9774   22200366.288
        52.0004         48.0004
 -25610078.21849 -19948192.68549  20165444.9014   20165447.3694   20165444.416
        58.0004         54.0004
  -8281382.29548  -6420895.43947  23349556.1544   23349561.5794   23349556.269
        48.0004         43.0004
 -25696100.69949 -19961802.38848  19946100.6104   19946101.6524   19946100.937
        56.0004         52.0004
 17  2  4  2 10 30.0000000  0  8G06G05G19G24G25G12G29G02
  -9502308.47748  -7388347.85547  22864326.8974   22864333.9824   22864325.370
        49.0004         45.0004
 -11212934.61348  -8728496.27847  22772733.5834   22772737.9534   22772732.815
        51.0004         47.0004
  -2089362.47547  -1570827.19546  24475353.5154   24475359.1574   24475354.456
        45.0004         41.0004
  -9744561.94447  -7550433.56247  23042564.0404   23042571.3874   23042563.831
        47.0004         43.0004
 -14228065.57948 -11046439.23948  22184742.2454   22184749.1784   22184743.325
        52.0004         48.0004
 -25626217.35749 -19960768.64149  20162373.6004   20162376.1394   20162373.402
        58.0004         54.0004
  -8349554.52748  -6474016.63347  23336584.4574   23336587.9444   23336583.955
        48.0004         43.0004
 -25658215.69549 -19932281.61448  19953309.8644   19953310.9324   19953310.456
        56.0004         52.0004
 17  2  4  2 11  0.0000000  0  8G06G05G19G24G25G12G29G02
  -9409940.01448  -7316372.45947  22881903.8074   22881910.9734   22881903.600
        49.0004         45.0004
 -11292038.20148  -8790135.39847  22757680.9274   22757684.7024   22757680.432
        51.0004         47.0004
  -2020423.23147  -1517108.39846  24488473.9934   24488477.2824   24488474.155
        45.0004         41.0004
  -9654514.66447  -7480266.92647  23059699.7664   23059707.0754   23059698.859
        47.0004         43.0004
 -14309927.54748 -11110227.77548  22169164.7894   22169171.5964   22169164.636
        52.0004         48.0004
 -25641881.71749 -19972974.64049  20159392.7894   20159395.2274   20159392.648
        58.0004         54.0004
  -8417651.12548  -6527078.87047  23323626.4474   23323630.2774   23323624.664
        48.0004         43.0004
 -25619823.92549 -19902365.95348  19960615.5404   19960616.6704   19960615.990
        56.0004         52.0004
 17  2  4  2 11 30.0000000  0  8G06G05G19G24G25G12G29G02
  -9317407.53348  -7244269.27147  22899512.6304   22899519.3384   22899512.365
        49.0004         45.0004
 -11370884.22448  -8851573.81747  22742676.9914   22742680.4524   22742676.432
        51.0004         47.0004
  -1951451.64147  -1463364.27346  24501596.5614   24501603.0024   24501597.647
        45.0004         39.0004
  -9564287.73847  -7409960.29547  23076868.5484   23076876.3424   23076867.786
        47.0004         43.0004
 -14391545.27148 -11173825.98448  22153633.8704   22153639.9684   22153633.546
        52.0004         48.0004
 -25657070.00949 -19984809.67449  20156502.5434   20156504.9874   20156502.478
        58.0004         54.0004
  -8485671.96448  -6580082.09547  23310681.6284   23310686.6104   23310681.794
        48.0004         43.0004
 -25580927.20649 -19872056.82648  19968017.4354   19968018.5384   19968017.974
        56.0004         52.0004
 17  2  4  2 12  0.0000000  0  8G06G05G19G24G25G12G29G02
  -9224713.50748  -7172040.19847  22917151.2414   22917157.6844   22917151.170
        49.0004         45.0004
 -11449470.17548  -8912809.58247  22727722.3614   22727726.9444   22727722.005
        51.0004         47.0004
  -1882447.93147  -1409595.34146  24514730.4354   24514733.1164   24514730.019
        45.0004         41.0004
  -9473884.35247  -7339516.19247  23094071.9424   23094079.4214   23094071.863
        47.0004         43.0004
 -14472916.54348 -11237232.15248  22138148.7904   22138155.5414   22138149.358
        52.0004         48.0004
 -25671780.81449 -19996272.64349  20153703.3474   20153705.7414   20153703.056
        58.0004         54.0004
  -8553617.49948  -6633026.62047  23297752.1454   23297756.2614   23297752.238
        48.0004         43.0004
 -25541528.01949 -19841356.16648  19975514.8144   19975515.7154   19975515.191
        56.0004         52.0004
 17  2  4  2 12 30.0000000  0  8G06G05G19G24G25G12G29G02
  -9131860.17848  -7099686.99847  22934820.8644   22934827.9834   22934820.751
        49.0004         45.0004
 -11527793.34348  -8973840.57947  22712818.1144   22712821.8464   22712817.261
        51.0004         47.0004
  -1813411.76947  -1355800.98246  24527866.2604   24527869.7424   24527867.193
        45.0004         40.0004
  -9383307.70247  -7268937.06447  23111308.9734   23111315.6294   23111308.510
        47.0004         43.0004
 -14554038.58148 -11300444.11048  22122711.8914   22122718.2404   22122711.755
        52.0004         48.0004
 -25686012.38549 -20007362.17849  20150995.0714   20150997.5694   20150994.941
        58.0004         54.0004
  -8621487.26648  -6685912.13847  23284836.7944   23284839.9344   23284837.361
        48.0004         43.0004
 -25501628.09549 -19810265.31948  19983107.5734   19983108.5444   19983108.067
        56.0004         52.0004
 17  2  4  2 13  0.0000000  0  8G06G05G19G24G25G12G29G02
  -9038849.72648  -7027211.35347  22952520.7864   22952527.9744   22952519.722
        49.0004         45.0004
 -11605851.03548  -9034664.71847  22697964.2074   22697967.5704   22697963.614
        51.0004         47.0004
  -1744342.71847  -1301980.93246  24541009.1224   24541014.8084   24541010.045
        44.0004         40.0004
  -9292560.68747  -7198225.17447  23128576.8824   23128584.6134   23128576.908
        47.0004         43.0004
 -14634909.00748 -11363460.01248  22107322.5104   22107328.9914   22107322.664
        53.0004         48.0004
 -25699763.23949 -20018077.13249  20148378.3194   20148380.7464   20148377.980
        58.0004         54.0004
  -8689281.67848  -6738738.89547  23271935.7034   23271939.4014   23271936.630
        48.0004         43.0004
 -25461229.34649 -19778785.77848  19990795.1434   19990796.0374   19990795.565
        56.0004         52.0004
 17  2  4  2 13 30.0000000  0  8G06G05G19G24G25G12G29G02
  -8945684.49848  -6954615.10147  22970248.9424   22970255.6294   22970248.394
        49.0004         45.0004
 -11683640.25948  -9095279.65347  22683161.3044   22683165.0434   22683160.428
        51.0004         47.0004
  -1675240.97947  -1248135.52446  24554161.1194   24554163.9224   24554161.574
        45.0004         41.0004
  -9201646.53747  -7127383.07247  23145877.4534   23145885.0664   23145877.020
        47.0004         43.0004
 -14715525.22948 -11426277.82848  22091981.8624   22091988.8194   22091981.789
        53.0004         48.0004
 -25713031.47449 -20028416.02049  20145853.6524   20145855.8514   20145853.173
        58.0004         54.0004
  -8757000.77248  -6791506.99947  23259049.5364   23259053.6904   23259049.771
        48.0004         43.0004
 -25420334.46749 -19746919.64248  19998577.2884   19998578.2734   19998577.793
        56.0004         52.0004
 17  2  4  2 14  0.0000000  0  8G06G05G19G24G25G12G29G02
  -8852366.86948  -6881900.11147  22988007.0694   22988013.6584   22988006.296
        49.0004         45.0004
 -11761158.01348  -9155683.05747  22668409.8984   22668414.2624   22668409.535
        51.0004         47.0004
  -1606106.58047  -1194264.68046  24567315.1774   24567319.5164   24567315.462
        45.0004         39.0004
  -9110568.46647  -7056413.22347  23163209.1604   23163217.2754   23163208.585
        47.0004         43.0004
 -14795884.76348 -11488895.63148  22076690.1944   22076696.6844   22076689.886
        53.0004         48.0004
 -25725816.43649 -20038378.33449  20143420.6564   20143423.0554   20143420.416
        58.0004         54.0004
  -8824644.54248  -6844216.39547  23246177.3604   23246180.9964   23246177.551
        48.0004         43.0004
 -25378945.44449 -19714668.46048  20006453.1674   20006454.2014   20006453.814
        56.0004         52.0004
 17  2  4  2 14 30.0000000  0  8G06G05G19G24G25G12G29G02
  -8758899.05648  -6809068.07647  23005794.0974   23005799.8294   23005793.747
        49.0004         45.0004
 -11838401.38848  -9215872.65547  22653710.8674   22653714.7864   22653710.627
        51.0004         47.0004
  -1536939.29747  -1140368.06646  24580477.6104   24580481.7104   24580478.150
        44.0004         39.0004
  -9019329.70247  -6985318.16147  23180571.2264   23180578.8304   23180571.029
        47.0004         42.0004
 -14875985.09548 -11551311.45648  22061447.2964   22061453.7874   22061447.538
        53.0004         48.0004
 -25738115.90249 -20047962.33949  20141080.1164   20141082.4054   20141079.805
        58.0004         54.0004
  -8892213.18048  -6896867.24847  23233320.0464   23233322.5814   23233319.394
        48.0004         43.0004
 -25337063.88649 -19682033.48348  20014423.0974   20014424.0704   20014423.500
        56.0004         52.0004
 17  2  4  2 15  0.0000000  0  8G06G05G19G24G25G12G29G02
  -8665283.36948  -6736120.83247  23023608.4944   23023614.4924   23023607.401
        49.0004         45.0004
 -11915367.74248  -9275846.38847  22639064.3434   22639068.9094   22639063.942
        51.0004         47.0004
  -1467738.96947  -1086445.81546  24593645.0364   24593651.2434   24593645.511
        45.0004         40.0004
  -8927933.39447  -6914100.33447  23197963.5644   23197971.7804   23197962.901
        47.0004         43.0004
 -14955823.69548 -11613523.34048  22046254.6424   22046261.2954   22046254.747
        53.0004         48.0004
 -25749928.67249 -20057167.10349  20138832.2294   20138834.5594   20138831.910
        58.0004         54.0004
  -8959706.73048  -6949459.57947  23220475.6694   23220480.4754   23220475.786
        48.0004         43.0004
 -25294692.52649 -19649016.84648  20022485.8944   20022487.0874   20022486.610
        56.0004         52.0004
 17  2  4  2 15 30.0000000  0  8G06G05G19G24G25G12G29G02
  -8571522.03148  -6663060.08547  23041450.0014   23041457.1924   23041449.631
        49.0004         45.0004
 -11992053.66848  -9335601.61247  22624471.0584   22624475.7864   22624470.818
        51.0004         47.0004
  -1398505.05547  -1032497.47646  24606820.1444   24606824.1174   24606821.368
        45.0004         40.0004
  -8836382.36647  -6842761.94247  23215385.1354   23215392.1744   23215384.950
        47.0004         43.0004
 -15035397.90648 -11675529.19948  22031111.8844   22031118.4334   22031112.291
        53.0004         48.0004
 -25761253.12349 -20065991.35749  20136677.2664   20136679.6204   20136677.117
        58.0004         54.0004
  -9027125.08548  -7001993.33347  23207645.6134   23207650.8184   23207645.636
        48.0004         43.0004
 -25251833.16649 -19615619.94748  20030641.9704   20030643.0774   20030642.443
        56.0004         52.0004
 17  2  4  2 16  0.0000000  0  8G06G05G19G24G25G12G29G02
  -8477617.52648  -6589887.77647  23059319.7724   23059326.9524   23059318.613
        49.0004         44.0004
 -12068457.04448  -9395136.66747  22609932.4674   22609937.2504   22609931.792
        51.0004         47.0004
  -1329237.85347   -978523.00046  24620001.7604   24620005.0184   24620002.943
        43.0004         39.0004
  -8744680.00247  -6771305.64247  23232836.1634   23232843.0224   23232834.609
        47.0004         42.0004
 -15114705.51748 -11737327.32148  22016020.6404   22016026.9314   22016020.639
        53.0004         48.0004
 -25772088.27349 -20074434.34149  20134615.2604   20134617.7184   20134615.106
        58.0004         54.0004
  -9094468.43448  -7054468.63047  23194830.9384   23194835.8534   23194831.546
        48.0004         43.0004
 -25208488.39749 -19581844.81048  20038890.0824   20038891.0974   20038890.748
        56.0004         52.0004
 17  2  4  2 16 30.0000000  0  8G06G05G19G24G25G12G29G02
  -8383571.71648  -6516605.36947  23077215.6114   23077222.5464   23077214.496
        49.0004         45.0004
 -12144574.72648  -9454449.09847  22595447.3894   22595451.9374   22595447.206
        51.0004         47.0004
  -1259936.90847   -924522.37046  24633189.7014   24633194.5134   24633190.834
        45.0004         41.0004
  -8652829.43947  -6699733.85847  23250315.0144   23250322.5894   23250314.559
        47.0004         42.0004
 -15193743.67848 -11798915.48048  22000979.9604   22000986.2624   22000980.238
        53.0004         48.0004
 -25782432.38249 -20082494.69149  20132646.9924   20132649.3654   20132646.591
        58.0004         54.0004
  -9161736.65948  -7106885.40347  23182030.4034   23182035.0954   23182029.873
        48.0004         43.0004
 -25164659.67849 -19547692.56548  20047230.5674   20047231.5444   20047231.021
        56.0004         52.0004
 17  2  4  2 17  0.0000000  0  8G06G05G19G24G25G12G29G02
  -8289387.17148  -6443214.85847  23095138.6544   23095145.6864   23095137.861
        49.0004         45.0004
 -12220404.20648  -9513536.95347  22581017.3794   22581022.1444   22581016.888
        51.0004         47.0004
  -1190602.65247   -870495.81546  24646384.3874   24646388.6284   24646384.991
        45.0004         40.0004
  -8560833.61747  -6628048.88347  23267819.9204   23267828.3084   23267819.870
        47.0004         42.0004
 -15272510.02248 -11860291.83348  21985991.2364   21985996.9204   21985991.562
        53.0004         48.0004
 -25792283.81049 -20090171.14049  20130772.3104   20130774.6804   20130772.096
        58.0004         54.0004
  -9228929.71148  -7159243.58647  23169244.0424   23169248.8054   23169244.446
        48.0004         43.0004
 -25120349.78049 -19513165.38148  20055662.3574   20055663.5474   20055662.841
        56.0004         52.0004
 17  2  4  2 17 30.0000000  0  8G06G05G19G24G25G12G29G02
  -8195065.94748  -6369717.83447  23113087.4214   23113094.1314   23113087.170
        49.0004         44.0004
 -12295942.03748  -9572397.55347  22566643.3624   22566647.9664   22566642.963
        51.0004         47.0004
  -1121234.35147   -816442.61246  24659585.3684   24659588.4664   24659584.801
        44.0004         38.0004
  -8468695.97747  -6556253.40447  23285353.6734   23285361.1224   23285353.820
        47.0004         42.0004
 -15351001.84748 -11921454.28148  21971054.6754   21971060.5474   21971054.684
        53.0004         48.0004
 -25801641.29749 -20097462.69549  20128991.6154   20128994.0774   20128991.394
        58.0004         54.0004
  -9296047.76648  -7211543.34147  23156472.0054   23156475.7274   23156471.865
        48.0004         44.0004
 -25075560.73249 -19478264.83048  20064185.4704   20064186.5254   20064185.869
        56.0004         52.0004
 17  2  4  2 18  0.0000000  0  8G06G05G19G24G25G12G29G02
  -8100610.44248  -6296116.17547  23131061.5594   23131068.2704   23131061.047
        49.0004         45.0004
 -12371185.78748  -9631028.99347  22552324.6434   22552329.3154   22552324.414
        51.0004         47.0004
  -1051832.24247   -762363.03446  24672791.1714   24672795.6524   24672791.404
        43.0004         39.0004
  -8376419.50247  -6484349.73147  23302914.2934   23302921.2154   23302912.705
        47.0004         42.0004
 -15429216.80948 -11982400.98948  21956171.0964   21956177.1794   21956171.147
        53.0004         48.0004
 -25810503.99849 -20104368.70649  20127305.2394   20127307.5814   20127305.097
        58.0004         54.0004
  -9363090.91548  -7263784.72547  23143714.2164   23143718.0124   23143714.210
        48.0004         44.0004
 -25030294.80849 -19442992.68848  20072799.2844   20072800.4164   20072799.996
        56.0004         52.0004
 17  2  4  2 18 30.0000000  0  8G06G05G19G24G25G12G29G02
  -8006022.77448  -6222411.54047  23149061.2284   23149068.3794   23149060.339
        49.0004         44.0004
 -12446132.55148  -9689429.02047  22538063.0484   22538067.7434   22538062.802
        51.0004         47.0004
   -982395.86847   -708256.91646  24686003.4794   24686008.1264   24686004.808
        44.0004         40.0004
  -8284007.25347  -6412340.29047  23320499.7214   23320508.1884   23320498.978
        47.0004         42.0004
 -15507152.22448 -12043129.87248  21941340.2414   21941346.3394   21941340.859
        53.0004         48.0004
 -25818870.03349 -20110887.70449  20125713.2044   20125715.4424   20125712.717
        58.0004         54.0004
  -9430059.04648  -7315967.64647  23130970.1194   23130974.1754   23130969.881
        48.0004         44.0004
 -24984554.20949 -19407350.66948  20081503.4914   20081504.5234   20081504.033
        56.0004         52.0004
 17  2  4  2 19  0.0000000  0  8G06G05G19G24G25G12G29G02
  -7911305.19548  -6148605.66547  23167085.4614   23167091.5544   23167085.523
        49.0004         44.0004
 -12520779.25548  -9747595.23447  22523858.1914   22523862.7454   22523857.878
        51.0004         47.0004
   -912925.20347   -654124.05246  24699224.3064   24699228.8564   24699225.070
        44.0004         39.0004
  -8191462.30747  -6340227.43847  23338110.4214   23338118.8194   23338108.867
        47.0004         42.0004
 -15584805.61148 -12103638.98948  21926563.8634   21926569.6384   21926563.701
        53.0004         48.0004
 -25826738.05949 -20117018.63949  20124215.9474   20124218.3714   20124215.648
        58.0004         54.0004
  -9496952.46848  -7368092.36447  23118241.7634   23118245.3454   23118240.993
        48.0004         44.0004
 -24938340.99849 -19371340.38148  20090297.5994   20090298.6134   20090298.034
        56.0004         51.0004
 17  2  4  2 19 30.0000000  0  8G06G05G19G24G25G12G29G02
  -7816459.90548  -6074700.29647  23185133.3484   23185141.6454   23185132.324
        49.0004         44.0004
 -12595123.42448  -9805525.70947  22509710.6454   22509715.7584   22509710.694
        52.0004         47.0004
   -843420.25047   -599964.31446  24712449.4464   24712453.3194   24712451.081
        43.0004         38.0004
  -8098788.14147  -6268013.89247  23355745.1224   23355752.9154   23355745.044
        46.0004         42.0004
 -15662174.41648 -12163926.35648  21911840.8944   21911846.7464   21911840.844
        53.0004         48.0004
 -25834106.76149 -20122760.49549  20122813.9574   20122816.0304   20122813.709
        58.0004         54.0004
  -9563770.94848  -7420158.66847  23105525.9664   23105529.6354   23105525.266
        48.0004         44.0004
 -24891657.50949 -19334963.64448  20099181.2594   20099182.3004   20099181.672
        56.0004         51.0004
 17  2  4  2 20  0.0000000  0  8G06G05G19G24G25G12G29G02
  -7721489.02048  -6000697.02247  23203205.4634   23203212.8694   23203205.866
        49.0004         44.0004
 -12669162.17448  -9863218.19247  22495621.8044   22495625.6544   22495621.420
        52.0004         47.0004
   -773880.74047   -545777.74546  24725684.0044   24725687.9664   24725684.675
        43.0004         39.0004
  -8005987.36447  -6195701.69347  23373404.6214   23373412.4294   23373404.943
        46.0004         42.0004
 -15739255.92248 -12223989.85948  21897172.3024   21897178.5094   21897172.481
        53.0004         48.0004
 -25840974.89749 -20128112.29849  20121506.7894   20121509.3014   20121506.452
        58.0004         54.0004
  -9630514.44748  -7472166.56147  23092824.6984   23092829.2464   23092824.234
        48.0004         44.0004
 -24844505.92149 -19298222.15348  20108153.6904   20108155.0194   20108154.174
        56.0004         51.0004
 17  2  4  2 20 30.0000000  0  9G06G05G19G24G25G12G29G20G02
  -7626394.85548  -5926597.72147  23221301.4924   23221308.2274   23221301.850
        49.0004         44.0004
 -12742893.13448  -9920670.84647  22481591.4784   22481595.3614   22481590.717
        52.0004         47.0004
   -704306.55747   -491564.20846  24738922.6134   24738928.2654   24738924.261
        44.0004         39.0004
  -7913063.49347  -6123293.58047  23391087.8524   23391095.1744   23391087.322
        46.0004         42.0004
 -15816047.75548 -12283827.63748  21882559.4744   21882565.6684   21882559.666
        53.0004         48.0004
 -25847341.00349 -20133072.90449  20120295.2724   20120297.6184   20120295.226
        58.0004         54.0004
  -9697183.22648  -7524116.24747  23080139.1254   23080141.4504   23080139.404
        48.0004         44.0004
   -172117.09748    -90359.27445  24566945.1994   24566951.5774   24566944.562
        53.0004         34.0004
 -24796888.69949 -19261117.83248  20117214.9754   20117215.9694   20117215.561
        56.0004         51.0004
 17  2  4  2 21  0.0000000  0  9G06G05G19G24G25G12G29G20G02
  -7531179.63148  -5852404.08147  23239420.6104   23239427.3974   23239419.620
        48.0004         44.0004
 -12816312.96948  -9977881.05747  22467619.8384   22467624.7674   22467619.645
        52.0004         47.0004
   -634697.30847   -437323.31246  24752168.8514   24752172.6664   24752170.284
        43.0004         38.0004
  -7820019.37147  -6050791.75947  23408793.6814   23408800.9844   23408793.162
        46.0004         42.0004
 -15892547.39448 -12343437.73648  21868001.9614   21868008.1254   21868001.986
        53.0004         48.0004
 -25853204.23349 -20137641.66449  20119179.6384   20119182.1204   20119179.603
        58.0004         54.0004
  -9763777.06648  -7576007.49747  23067465.6704   23067469.8054   23067465.517
        49.0004         44.0004
   -276347.12947   -171577.23745  24547106.5074   24547115.8204   24547108.923
        47.0004         35.0004
 -24748808.07549 -19223652.41948  20126364.6054   20126365.5334   20126364.988
        56.0004         51.0004
 17  2  4  2 21 30.0000000  0  9G06G05G19G24G25G12G29G20G02
  -7435845.37748  -5778117.68947  23257562.5854   23257568.6924   23257562.282
        48.0004         44.0004
 -12889418.87148 -10034846.65647  22453708.4084   22453712.6494   22453707.913
        52.0004         47.0004
   -565052.88647   -383054.90146  24765421.5454   24765427.9604   24765423.218
        42.0004         38.0004
  -7726858.06447  -5978198.61946  23426521.6024   23426529.4674   23426522.120
        46.0004         41.0004
 -15968752.09948 -12402818.01848  21853500.8334   21853506.3944   21853500.865
        53.0004         48.0004
 -25858562.97649 -20141817.31749  20118159.9794   20118162.3284   20118159.556
        58.0004         54.0004
  -9830296.24948  -7627840.60147  23054807.7514   23054811.6104   23054807.951
        49.0004         44.0004
   -380631.68747   -252837.74845  24527267.1054   24527271.0574   24527265.228
        43.0004         35.0004
 -24700266.08449 -19185827.50148  20135601.6734   20135602.6284   20135602.252
        56.0004         51.0004
 17  2  4  2 22  0.0000000  0  9G06G05G19G24G25G12G29G20G02
  -7340394.38048  -5703740.32647  23275726.3324   23275733.3484   23275724.946
        48.0004         44.0004
 -12962208.38748 -10091565.71547  22439856.6424   22439860.5234   22439856.408
        52.0004         47.0004
   -495373.40847   -328759.30046  24778681.8074   24778687.2574   24778682.491
        43.0004         38.0004
  -7633582.99347  -5905516.84446  23444271.9714   23444279.1764   23444270.719
        46.0004         41.0004
 -16044659.48948 -12461966.62048  21839055.9104   21839062.0004   21839056.379
        53.0004         48.0004
 -25863415.98249 -20145598.89249  20117236.3764   20117238.7934   20117236.213
        58.0004         54.0004
  -9896740.74948  -7679615.49947  23042163.2284   23042167.7834   23042163.937
        49.0004         44.0004
                                                                  24507410.125

 -24651265.36149 -19147645.13148  20144926.1704   20144927.2904   20144926.679
        56.0004         51.0004
 17  2  4  2 22 30.0000000  0  9G06G05G19G24G25G12G29G20G02
  -7244828.67448  -5629273.59247  23293911.6154   23293918.3454   23293910.692
        48.0004         44.0004
 -13034678.74148 -10148036.07748  22426066.4304   22426070.4144   22426065.678
        52.0004         48.0004
   -425658.21647   -274435.88446  24791949.1874   24791952.4644   24791948.744
        42.0004         38.0004
  -7540196.83147  -5832748.49446  23462042.4504   23462050.2514   23462042.081
        46.0004         41.0004
 -16120266.83948 -12520881.42848  21824668.3004   21824674.8634   21824668.492
        53.0004         49.0004
 -25867762.09349 -20148985.47949  20116409.2804   20116411.7844   20116409.050
        58.0004         54.0004
  -9963110.18748  -7731331.92647  23029534.0484   23029538.2694   23029533.399
        49.0004         44.0004
   -589353.98046   -415477.59945  24487545.7364   24487554.4334   24487544.715
        39.0004         35.0004
 -24601807.94549 -19109106.89348  20154337.5474   20154338.6144   20154338.361
        56.0004         51.0004
 17  2  4  2 23  0.0000000  0  9G06G05G19G24G25G12G29G20G02
  -7149150.62348  -5554719.29947  23312118.3044   23312125.7294   23312117.898
        48.0004         43.0004
 -13106826.80448 -10204255.30848  22412337.1964   22412341.1914   22412336.418
        52.0004         48.0004
   -355907.62546   -220084.85046  24805221.1394   24805223.4514   24805222.064
        41.0004         36.0004
  -7446703.38047  -5759896.55946  23479833.9104   23479841.0684   23479833.851
        46.0004         41.0004
 -16195571.80848 -12579560.61548  21810338.2464   21810344.8934   21810338.418
        53.0004         49.0004
 -25871600.12849 -20151976.16549  20115678.9734   20115681.3884   20115678.813
        58.0004         54.0004
 -10029404.81948  -7782990.05247  23016918.3154   23016922.5564   23016918.590
        49.0004         44.0004
   -693787.47246   -496854.08245  24467669.9764   24467678.8064   24467672.776
        40.0004         35.0004
 -24551896.19649 -19070214.63048  20163835.7894   20163836.7304   20163835.897
        56.0004         51.0004
 17  2  4  2 23 30.0000000  0  9G06G05G19G24G25G12G29G20G02
  -7053362.20648  -5480079.01647  23330346.3574   23330353.2484   23330345.599
        48.0004         43.0004
 -13178649.64548 -10260221.12048  22398669.7424   22398673.6864   22398668.771
        52.0004         48.0004
   -286121.03246   -165705.61946  24818501.8674   24818506.4614   24818504.144
        41.0004         37.0004
  -7353105.38147  -5686963.14346  23497645.2334   23497652.2594   23497644.577
        46.0004         41.0004
 -16270571.65548 -12638002.04848  21796066.4094   21796072.3974   21796066.324
        53.0004         49.0004
 -25874928.83449 -20154569.97149  20115045.4664   20115047.9804   20115045.345
        58.0004         54.0004
 -10095624.58348  -7834589.84047  23004317.0574   23004321.2014   23004316.721
        49.0004         45.0004
   -798265.82746   -578265.47246  24447791.8164   24447798.9354   24447791.573
        41.0004         36.0004
 -24501532.37149 -19030970.10248  20173419.6164   20173420.6774   20173420.228
        56.0004         51.0004
 17  2  4  2 24  0.0000000  0  9G06G05G19G24G25G12G29G20G02
  -6957465.57948  -5405354.41447  23348595.3144   23348601.8624   23348594.783
        48.0004         43.0004
 -13250145.38248 -10315932.05448  22385064.2564   22385068.2704   22385063.651
        52.0004         48.0004
   -216298.62347   -111298.66046  24831788.0834   24831794.0664   24831789.434
        42.0004         38.0004
  -7259405.38147  -5613950.24046  23515475.6374   23515483.9904   23515474.553
        46.0004         41.0004
 -16345263.84248 -12696203.74348  21781853.0474   21781859.3014   21781852.997
        53.0004         49.0004
 -25877746.91149 -20156765.88649  20114509.3584   20114511.8334   20114509.078
        58.0004         54.0004
 -10161769.69548  -7886131.46347  22991730.6074   22991734.6184   22991729.925
        49.0004         45.0004
   -902786.36247   -659709.70346  24427898.0664   24427906.7594   24427900.558
        42.0004         37.0004
 -24450718.87549 -18991375.18048  20183089.2544   20183090.1734   20183089.352
        56.0004         51.0004
 17  2  4  2 24 30.0000000  0  9G06G05G19G24G25G12G29G20G02
  -6861462.88248  -5330547.15947  23366864.5464   23366870.6504   23366863.356
        48.0004         43.0004
 -13321311.06348 -10371385.79748  22371521.1664   22371525.9804   22371521.359
        53.0004         48.0004
   -146440.12447    -56863.55146  24845081.3734   24845086.0334   24845082.470
        43.0004         38.0004
  -7165606.88247  -5540860.61746  23533324.6164   23533332.3194   23533324.476
        46.0004         41.0004
 -16419645.79448 -12754163.69248  21767698.3264   21767704.4584   21767698.346
        53.0004         49.0004
 -25880053.56149 -20158563.28549  20114070.3574   20114072.8824   20114070.173
        58.0004         54.0004
 -10227839.99248  -7937614.78647  22979157.6864   22979160.9704   22979157.515
        49.0004         45.0004
  -1007346.60946   -741184.94046  24408003.2654   24408008.2734   24408002.780
        41.0004         37.0004
 -24399457.97249 -18951431.62648  20192843.5314   20192844.7214   20192844.042
        56.0004         51.0004
 17  2  4  2 25  0.0000000  0  9G06G05G19G24G25G12G29G20G02
  -6765356.28748  -5255658.94147  23385151.6684   23385159.4524   23385150.947
        48.0004         43.0004
 -13392143.32948 -10426579.74348  22358042.5854   22358046.7374   22358042.649
        53.0004         48.0004
    -76545.41447     -2400.18246  24858381.3634   24858386.8654   24858383.637
        42.0004         36.0004
  -7071713.66547  -5467697.18446  23551192.6174   23551200.0634   23551191.914
        46.0004         41.0004
 -16493715.01448 -12811879.95948  21753603.7484   21753609.8534   21753603.575
        53.0004         49.0004
 -25881847.38049 -20159961.07849  20113729.2144   20113731.4954   20113728.827
        58.0004         54.0004
 -10293835.43548  -7989039.78147  22966599.8494   22966603.1124   22966598.014
        49.0004         45.0004
  -1111944.12147   -822689.19846  24388098.7934   24388105.5904   24388099.854
        42.0004         38.0004
 -24347752.17049 -18911141.40148  20202682.9244   20202684.0184   20202683.612
        56.0004         51.0004
 17  2  4  2 25 30.0000000  0  9G06G05G19G24G25G12G29G20G02
  -6669147.84548  -5180691.36547  23403460.9404   23403467.7054   23403459.668
        48.0004         43.0004
 -13462640.11748 -10481512.28048  22344627.7924   22344632.0164   22344627.085
        53.0004         48.0004
     -6614.06746     52091.70645  24871691.4694   24871693.5134   24871691.100
        40.0004         35.0004
  -6977727.95047  -5394461.64746  23569076.4164   23569084.8344   23569076.323
        46.0004         41.0004
 -16567468.88749 -12869350.49648  21739568.7084   21739574.8794   21739568.451
        54.0004         49.0004
 -25883127.37049 -20160958.48249  20113485.5994   20113487.9234   20113485.145
        58.0004         54.0004
 -10359755.94248  -8040406.38647  22954054.1094   22954059.0574   22954054.807
        49.0004         45.0004
  -1216576.50347   -904220.59846  24368186.4284   24368193.2564   24368188.134
        42.0004         38.0004
 -24295603.85549 -18870506.35648  20212606.4134   20212607.3934   20212606.923
        56.0004         51.0004
 17  2  4  2 26  0.0000000  0  9G06G05G19G24G25G12G29G20G02
  -6572839.65447  -5105646.06647  23421786.7214   23421794.4254   23421785.885
        47.0004         43.0004
 -13532798.83048 -10536181.37448  22331277.2404   22331281.8544   22331276.653
        53.0004         48.0004
     63353.89746    106612.17146  24885005.0534   24885009.2674   24885005.205
        41.0004         37.0004
  -6883652.99447  -5321156.57946  23586979.1364   23586986.4104   23586978.291
        45.0004         41.0004
 -16640904.81749 -12926573.28648  21725594.1694   21725600.6784   21725594.270
        54.0004         49.0004
 -25883892.13949 -20161554.41749  20113339.9444   20113342.3814   20113339.622
        58.0004         54.0004
 -10425601.28048  -8091714.41847  22941524.4014   22941528.2344   22941524.553
        49.0004         45.0004
  -1321240.98347   -985777.05346  24348271.2424   24348278.7684   24348270.998
        42.0004         38.0004
 -24243015.03749 -18829528.06448  20222613.7394   20222614.8514   20222614.046
        56.0004         51.0004
 17  2  4  2 26 30.0000000  0  9G06G05G19G24G25G12G29G20G02
  -6476433.94647  -5030524.78847  23440133.5934   23440139.8674   23440132.044
        47.0004         43.0004
 -13602616.20648 -10590584.50248  22317990.8014   22317995.3324   22317990.584
        53.0004         48.0004
    133358.83447    161161.44846  24898326.6464   24898331.5744   24898327.321
        42.0004         38.0004
  -6789492.20347  -5247784.62946  23604897.1944   23604904.6614   23604896.450
        46.0004         41.0004
 -16714020.38849 -12983546.44648  21711680.8284   21711687.2854   21711681.141
        54.0004         49.0004
 -25884141.07449 -20161748.40349  20113292.6754   20113294.9644   20113292.311
        58.0004         54.0004
 -10491371.86648  -8142964.19547  22929009.1444   22929013.5494   22929008.438
        50.0004         45.0004
  -1425935.52947  -1067356.92546  24328346.8514   24328353.7214   24328347.080
        43.0004         38.0004
 -24189988.05049 -18788208.34148  20232704.5624   20232705.6034   20232704.992
        56.0004         51.0004
 17  2  4  2 27  0.0000000  0  9G06G05G19G24G25G12G29G20G02
  -6379932.56147  -4955328.93447  23458495.8144   23458503.4164   23458495.741
        47.0004         43.0004
 -13672089.15548 -10644719.24248  22304771.1914   22304775.3494   22304770.458
        53.0004         48.0004
    203400.71746    215739.48746  24911654.9594   24911659.3714   24911654.845
        41.0004         36.0004
  -6695247.89647  -5174347.61946  23622831.1324   23622838.4814   23622831.003
        46.0004         41.0004
 -16786812.83149 -13040267.81948  21697829.1904   21697835.3044   21697828.959
        54.0004         49.0004
 -25883872.72649 -20161539.31149  20113343.7474   20113346.0654   20113343.433
        58.0004         54.0004
 -10557067.52648  -8194155.59947  22916507.7874   22916511.6594   22916507.068
        50.0004         45.0004
  -1530657.12347  -1148957.91246  24308419.9004   24308425.8924   24308420.175
        43.0004         39.0004
 -24136525.21249 -18746548.99448  20242878.0074   20242879.1374   20242878.380
        56.0004         51.0004
 17  2  4  2 27 30.0000000  0  9G06G05G19G24G25G12G29G20G02
  -6283337.81847  -4880060.36347  23476877.7004   23476884.6734   23476877.112
        47.0004         42.0004
 -13741216.25248 -10698584.48348  22291616.7484   22291620.7604   22291615.726
        53.0004         48.0004
    273479.94146    270346.55046  24924990.5074   24924996.3924   24924988.867
        40.0004         36.0004
  -6600923.99647  -5100848.57946  23640780.8534   23640788.7274   23640780.446
        46.0004         41.0004
 -16859279.72149 -13096735.51248  21684038.9054   21684044.9874   21684038.866
        54.0004         49.0004
 -25883085.81149 -20160926.13949  20113493.4434   20113495.8804   20113493.090
        58.0004         54.0004
 -10622688.27748  -8245288.62447  22904019.9444   22904024.5164   22904019.629
        50.0004         45.0004
  -1635403.45547  -1230578.15146  24288486.0284   24288492.4874   24288485.586
        43.0004         39.0004
 -24082629.21649 -18704552.12348  20253134.1084   20253135.3234   20253134.852
        56.0004         51.0004
 17  2  4  2 28  0.0000000  0  9G06G05G19G24G25G12G29G20G02
  -6186651.64547  -4804720.52547  23495277.2154   23495283.6534   23495275.547
        47.0004         42.0004
 -13809994.12348 -10752177.60448  22278528.8044   22278532.5394   22278527.930
        53.0004         48.0004
    343596.40946    324982.70246  24938332.9784   24938337.6494   24938333.860
        41.0004         37.0004
  -6506523.02947  -5027289.46646  23658744.5724   23658752.2934   23658744.537
        46.0004         41.0004
 -16931418.46849 -13152947.51448  21670311.2564   21670317.5834   21670311.402
        54.0004         49.0004
 -25881779.68549 -20159908.39049  20113742.0744   20113744.3824   20113741.803
        58.0004         54.0004
 -10688233.88848  -8296363.10247  22891547.2124   22891552.3744   22891547.203
        50.0004         45.0004
  -1740171.97147  -1312215.70046  24268549.8604   24268555.6274   24268550.573
        44.0004         39.0004
 -24028302.40949 -18662219.55848  20263472.3324   20263473.3064   20263472.672
        55.0004         51.0004
 17  2  4  2 28 30.0000000  0  9G06G05G19G24G25G12G29G20G02
  -6089876.13247  -4729311.09347  23513691.7304   23513700.2294   23513692.223
        47.0004         42.0004
 -13878420.20548 -10805496.59548  22265506.9114   22265511.2664   22265506.499
        53.0004         48.0004
    413750.51647    379648.20646  24951682.2774   24951687.9304   24951682.901
        42.0004         37.0004
  -6412048.40547  -4953672.96846  23676722.5924   23676731.1924   23676722.021
        46.0004         41.0004
 -17003226.48449 -13208901.80448  21656646.8534   21656652.9454   21656647.037
        54.0004         49.0004
 -25879953.34349 -20158485.27649  20114089.5194   20114091.9694   20114089.316
        58.0004         54.0004
 -10753704.29548  -8347378.97247  22879088.9184   22879091.7714   22879088.749
        50.0004         45.0004
  -1844960.22647  -1393868.65546  24248607.8234   24248615.7284   24248608.991
        44.0004         40.0004
 -23973546.95449 -18619552.97848  20273892.0424   20273893.1424   20273892.241
        55.0004         51.0004
 17  2  4  2 29  0.0000000  0  9G06G05G19G24G25G12G29G20G02
  -5993013.36547  -4653833.63547  23532124.5034   23532131.2144   23532124.399
        47.0004         42.0004
 -13946491.60448 -10858539.20948  22252553.8084   22252557.7514   22252553.512
        53.0004         48.0004
    483942.46647    434343.17746  24965042.0314   24965043.9814   24965041.841
        42.0004         37.0004
  -6317503.15447  -4880001.45246  23694713.7174   23694721.9564   23694713.667
        46.0004         41.0004
 -17074701.22849 -13264596.39948  21643045.4344   21643051.8344   21643045.569
        54.0004         50.0004
 -25877605.80349 -20156656.03449  20114536.4144   20114538.6544   20114536.021
        58.0004         54.0004
 -10819099.76048  -8398336.45247  22866645.2414   22866648.6454   22866644.262
        50.0004         45.0004
  -1949765.54647  -1475534.87146  24228664.5574   24228673.6344   24228664.664
        44.0004         40.0004
 -23918365.14049 -18576554.17148  20284392.6694   20284393.6484   20284392.940
        55.0004         51.0004
 17  2  4  2 29 30.0000000  0  9G06G05G19G24G25G12G29G20G02
  -5896065.35047  -4578289.77447  23550572.9904   23550580.5714   23550572.454
        47.0004         42.0004
 -14014205.74148 -10911303.43548  22239668.2104   22239672.2174   22239667.404
        53.0004         48.0004
    554172.46446    489067.81645  24978404.2274   24978410.8404   24978405.523
        40.0004         35.0004
  -6222889.68647  -4806276.78347  23712719.4144   23712726.9754   23712719.187
        46.0004         42.0004
 -17145840.07349 -13320029.25448  21629508.2734   21629514.4004   21629508.338
        54.0004         49.0004
 -25874735.91249 -20154419.76549  20115082.4914   20115085.0324   20115082.047
        58.0004         54.0004
 -10884420.05648  -8449235.35247  22854214.2704   22854217.6624   22854214.393
        50.0004         45.0004
  -2054585.39247  -1557212.41846  24208716.9654   24208723.9144   24208718.361
        44.0004         39.0004
 -23862759.35149 -18533224.99448  20294974.0754   20294975.0134   20294974.417
        55.0004         51.0004
 17  2  4  2 30  0.0000000  0  9G06G05G19G24G25G12G29G20G02
  -5799034.14147  -4502681.09147  23569037.7734   23569045.7294   23569037.050
        47.0004         42.0004
 -14081560.22248 -10963787.40248  22226850.7474   22226855.2124   22226850.617
        53.0004         48.0004
    624440.90556    543822.36455  24991775.6245   24991777.7255   24991775.708
        39.0004         34.0004
  -6128211.71847  -4732501.86047  23730735.1884   23730743.3554   23730734.769
        46.0004         42.0004
 -17216640.52449 -13375198.43148  21616035.6264   21616041.5254   21616035.599
        54.0004         49.0004
 -25871342.66149 -20151775.68249  20115728.1544   20115730.5724   20115727.800
        58.0004         54.0004
 -10949664.93648  -8500075.49647  22841798.2504   22841802.8774   22841798.842
        50.0004         45.0004
  -2159417.42147  -1638899.48446  24188768.9254   24188775.9084   24188769.147
        44.0004         40.0004
 -23806732.46249 -18489567.68848  20305635.4444   20305637.0574   20305636.070
        55.0004         51.0004
 17  2  4  2 30 30.0000000  0  9G06G05G19G24G25G12G29G20G02
  -5701921.81447  -4427009.18747  23587518.1734   23587525.0804   23587516.101
        47.0004         42.0004
 -14148552.35748 -11015989.02548  22214102.3784   22214107.0654   22214102.203
        53.0004         48.0004
    694747.65946    598606.79545  25005156.1924   25005158.7144   25005156.547
        38.0004         33.0004
  -6033472.07447  -4658678.87546  23748763.2564   23748771.3024   23748763.294
        46.0004         41.0004
 -17287100.04349 -13430101.94548  21602627.2764   21602633.4444   21602627.467
        54.0004         50.0004
 -25867425.40649 -20148723.28849  20116473.4804   20116475.9284   20116473.291
        58.0004         54.0004
 -11014834.57148  -8550857.01147  22829397.1204   22829400.9274   22829396.814
        50.0004         45.0004
  -2264258.89947  -1720593.89646  24168818.0954   24168824.0364   24168818.181
        44.0004         40.0004
 -23750286.52249 -18445583.85148  20316377.0104   20316378.0234   20316377.300
        55.0004         51.0004
 17  2  4  2 31  0.0000000  0  8G06G05G24G25G12G29G20G02
  -5604730.27547  -4351275.57647  23606012.4634   23606019.7254   23606011.773
        46.0004         42.0004
 -14215179.46448 -11067906.20648  22201423.8114   22201428.1004   22201423.890
        53.0004         48.0004
  -5938673.64547  -4584810.07646  23766803.8794   23766811.4404   23766802.798
        46.0004         41.0004
 -17357216.03749 -13484737.77948  21589284.7574   21589291.1564   21589284.714
        54.0004         49.0004
 -25862983.00049 -20145261.68249  20117318.9934   20117321.3914   20117318.727
        58.0004         54.0004
 -11079928.81748  -8601579.77647  22817010.7534   22817013.8614   22817010.208
        50.0004         45.0004
  -2369107.34047  -1802293.77546  24148865.8874   24148872.9164   24148866.179
        45.0004         40.0004
 -23693424.05449 -18401275.44648  20327197.3764   20327198.6174   20327197.942
        55.0004         51.0004
 17  2  4  2 31 30.0000000  0  8G06G05G24G25G12G29G20G02
  -5507461.58247  -4275481.83947  23624521.5734   23624529.1494   23624522.547
        46.0004         42.0004
 -14281438.86448 -11119536.85848  22188815.3114   22188819.0704   22188814.801
        53.0004         48.0004
  -5843819.77347  -4510898.09046  23784853.3944   23784861.2374   23784852.639
        46.0004         41.0004
 -17426985.95349 -13539103.94048  21576008.1144   21576014.2714   21576008.029
        54.0004         49.0004
 -25858014.57749 -20141390.19449  20118264.4074   20118266.7864   20118264.085
        58.0004         54.0004
 -11144947.75148  -8652243.86147  22804638.4264   22804640.8154   22804637.899
        50.0004         45.0004
  -2473960.00847  -1883996.95346  24128913.1374   24128919.1304   24128913.377
        45.0004         40.0004
 -23636147.45849 -18356644.34848  20338097.2254   20338097.9784   20338097.283
        55.0004         51.0004
 17  2  4  2 32  0.0000000  0  8G06G05G24G25G12G29G20G02
  -5410117.75847  -4199629.56347  23643045.8004   23643053.7384   23643045.754
        46.0004         42.0004
 -14347328.29448 -11170879.22148  22176277.3304   22176280.8114   22176277.062
        53.0004         48.0004
  -5748913.48347  -4436945.25246  23802913.8454   23802921.6504   23802913.081
        46.0004         41.0004
 -17496407.28449 -13593198.47748  21562797.5144   21562803.7474   21562797.376
        54.0004         49.0004
 -25852519.35649 -20137108.21449  20119310.0284   20119312.6604   20119309.904
        58.0004         54.0004
 -11209891.08548  -8702849.03047  22792278.8104   22792282.8144   22792278.890
        50.0004         45.0004
  -2578814.36347  -1965701.43746  24108959.6774   24108964.9244   24108960.473
        45.0004         40.0004
 -23578459.19449 -18311692.46448  20349074.7184   20349076.0344   20349075.119
        55.0004         51.0004
 17  2  4  2 32 30.0000000  0  8G06G05G24G25G12G29G20G02
  -5312700.64147  -4123720.15846  23661584.8384   23661591.5424   23661582.811
        46.0004         41.0004
 -14412844.86548 -11221931.04248  22163809.4194   22163812.7854   22163808.750
        53.0004         48.0004
  -5653957.76947  -4362953.91346  23820983.0004   23820991.2084   23820983.544
        45.0004         41.0004
 -17565477.28349 -13647019.25148  21549653.8984   21549659.9134   21549653.956
        54.0004         49.0004
 -25846496.21649 -20132414.87049  20120456.2284   20120458.8404   20120455.992
        58.0004         54.0004
 -11274758.83048  -8753395.31047  22779935.6974   22779938.6544   22779934.911
        50.0004         45.0004
  -2683668.00947  -2047405.35946  24089005.6504   24089012.5964   24089006.767
        45.0004         40.0004
 -23520361.57049 -18266421.60548  20360130.2874   20360131.4514   20360130.918
        55.0004         51.0004
 17  2  4  2 33  0.0000000  0  8G06G05G24G25G12G29G20G02
  -5215212.42147  -4047755.36547  23680136.3784   23680143.6034   23680135.327
        46.0004         42.0004
 -14477985.94048 -11272690.26648  22151413.5914   22151417.6084   22151413.130
        53.0004         48.0004
  -5558955.63147  -4288926.39846  23839062.2374   23839070.7264   23839061.166
        46.0004         41.0004
 -17634193.58349 -13700564.41348  21536577.7544   21536584.1354   21536577.607
        54.0004         49.0004
 -25839944.61849 -20127309.73749  20121703.1184   20121705.4594   20121702.683
        58.0004         54.0004
 -11339551.05048  -8803882.73147  22767605.8144   22767609.8224   22767605.125
        50.0004         45.0004
  -2788518.26647  -2129106.66246  24069054.3324   24069058.9374   24069055.090
        45.0004         40.0004
 -23461856.97549 -18220833.62348  20371263.4234   20371264.7474   20371263.754
        55.0004         51.0004
 17  2  4  2 33 30.0000000  0  8G06G05G24G25G12G29G20G02
  -5117654.93747  -3971736.59246  23698699.3624   23698706.7634   23698698.392
        46.0004         41.0004
 -14542749.08648 -11323154.99848  22139089.4804   22139093.1374   22139088.766
        53.0004         48.0004
  -5463909.84847  -4214864.85646  23857147.8714   23857156.7594   23857148.223
        46.0004         41.0004
 -17702553.60849 -13753831.95648  21523568.9894   21523575.2614   21523568.977
        54.0004         50.0004
 -25832863.52049 -20121792.00749  20123050.5424   20123052.9674   20123050.161
        58.0004         54.0004
 -11404267.35348  -8854311.00447  22755290.0604   22755293.9364   22755290.678
        50.0004         45.0004
  -2893362.58647  -2210803.33846  24049102.6984   24049108.7984   24049103.248
        44.0004         40.0004
 -23402947.75649 -18174930.34548  20382473.3114   20382474.4714   20382473.884
        55.0004         51.0004
 17  2  4  2 34  0.0000000  0  8G06G05G24G25G12G29G20G02
  -5020030.23347  -3895665.45047  23717278.4314   23717286.3484   23717276.178
        46.0004         42.0004
 -14607131.94848 -11373323.41448  22126837.7734   22126841.3674   22126837.549
        53.0004         48.0004
  -5368823.87547  -4140772.00446  23875242.6174   23875250.4684   23875242.532
        46.0004         41.0004
 -17770554.86149 -13806819.93548  21510628.8914   21510634.9394   21510629.121
        54.0004         50.0004
 -25825251.64249 -20115860.68349  20124498.9654   20124501.5174   20124498.650
        58.0004         54.0004
 -11468907.82348  -8904680.18047  22742989.7394   22742993.0484   22742989.430
        50.0004         45.0004
  -2998198.34147  -2292493.34546  24029153.5844   24029158.8894   24029154.214
        44.0004         40.0004
 -23343636.67749 -18128713.93448  20393759.9804   20393761.0664   20393760.292
        55.0004         51.0004
 17  2  4  2 34 30.0000000  0  8G06G05G24G25G12G29G20G02
  -4922340.21347  -3819543.40547  23735866.9064   23735874.0744   23735868.275
        46.0004         42.0004
 -14671131.62648 -11423193.23948  22114658.7034   22114662.9714   22114658.527
        53.0004         48.0004
  -5273700.22447  -4066649.81146  23893344.5274   23893352.7554   23893343.448
        45.0004         41.0004
 -17838194.67849 -13859526.28048  21497757.4374   21497763.5534   21497757.334
        54.0004         50.0004
 -25817109.31949 -20109516.02849  20126048.5614   20126050.8784   20126048.155
        58.0004         54.0004
 -11533472.46648  -8954990.27247  22730702.6194   22730706.6834   22730703.407
        49.0004         45.0004
  -3103023.10647  -2374174.78946  24009205.8154   24009212.4604   24009205.824
        44.0004         40.0004
 -23283925.54849 -18082185.79748  20405122.7074   20405123.8164   20405123.018
        55.0004         51.0004
 17  2  4  2 35  0.0000000  0  8G06G05G24G25G12G29G20G02
  -4824586.81347  -3743371.98146  23754469.3144   23754475.9174   23754467.809
        46.0004         41.0004
 -14734745.83848 -11472762.70948  22102553.7574   22102557.2404   22102553.040
        53.0004         49.0004
  -5178542.10847  -3992500.76346  23911451.5484   23911460.2144   23911451.959
        45.0004         41.0004
 -17905470.54249 -13911949.02248  21484955.1304   21484961.4674   21484955.346
        54.0004         50.0004
 -25808435.29849 -20102757.06149  20127698.9814   20127701.6494   20127698.797
        58.0004         54.0004
 -11597961.10948  -9005241.14447  22718431.5814   22718435.1164   22718431.677
        49.0004         45.0004
  -3207834.08347  -2455845.47946  23989261.0534   23989266.4644   23989261.294
        44.0004         40.0004
 -23223817.32149 -18035348.22848  20416560.6464   20416562.0394   20416561.279
        55.0004         51.0004
 17  2  4  2 35 30.0000000  0  8G06G05G24G25G12G29G20G02
  -4726772.00247  -3667152.69347  23773082.5614   23773090.1204   23773083.145
        46.0004         42.0004
 -14797971.83848 -11522029.67748  22090522.0284   22090526.1004   22090521.399
        53.0004         49.0004
  -5083352.51947  -3918327.20046  23929566.4104   23929575.5234   23929566.458
        45.0004         41.0004
 -17972379.98249 -13964086.23948  21472222.7444   21472228.7594   21472222.764
        54.0004         50.0004
 -25799228.75249 -20095583.13848  20129450.9644   20129453.4794   20129450.626
        58.0004         53.0004
 -11662373.65248  -9055432.70347  22706174.8014   22706178.0844   22706174.347
        50.0004         45.0004
  -3312628.74447  -2537503.46946  23969319.1404   23969325.4424   23969319.047
        45.0004         40.0004
 -23163314.37949 -17988203.09148  20428073.9704   20428075.4814   20428074.627
        55.0004         51.0004
 17  2  4  2 36  0.0000000  0  8G06G05G24G25G12G29G20G02
  -4628897.72547  -3590887.06747  23791707.9124   23791715.5734   23791706.545
        46.0004         42.0004
 -14860807.33648 -11570992.35948  22078564.9494   22078568.5214   22078564.405
        53.0004         49.0004
  -4988134.53447  -3844131.49046  23947686.3264   23947693.1054   23947686.258
        45.0004         40.0004
 -18038920.45349 -14015935.95048  21459560.8524   21459566.4884   21459560.643
        54.0004         50.0004
 -25789488.11449 -20087993.04248  20131304.7964   20131307.1034   20131304.379
        58.0004         53.0004
 -11726709.57848  -9105564.58147  22693931.7404   22693935.6274   22693932.047
        50.0004         45.0004
  -3417404.52447  -2619146.76246  23949380.7054   23949386.9424   23949380.747
        44.0004         40.0004
 -23102419.32549 -17940752.41248  20439662.3274   20439663.3324   20439662.561
        55.0004         51.0004
 17  2  4  2 36 30.0000000  0  8G06G05G24G25G12G29G20G02
  -4530965.81847  -3514576.54446  23810344.0074   23810351.2444   23810342.240
        46.0004         41.0004
 -14923249.70748 -11619648.71848  22066682.5114   22066686.4244   22066681.764
        53.0004         49.0004
  -4892890.90847  -3769915.80646  23965809.9324   23965817.9414   23965809.040
        45.0004         40.0004
 -18105089.34849 -14067496.11948  21446969.1134   21446975.2644   21446969.191
        54.0004         50.0004
 -25779214.14849 -20079987.36648  20133259.7064   20133262.1794   20133259.286
        58.0004         53.0004
 -11790969.16648  -9155636.95947  22681703.4864   22681706.8844   22681703.785
        50.0004         45.0004
  -3522158.93747  -2700773.37246  23929446.4144   23929452.9674   23929446.749
        44.0004         40.0004
 -23041134.44149 -17892997.97148  20451324.2974   20451325.5374   20451324.788
        55.0004         51.0004
 17  2  4  2 37  0.0000000  0  8G06G05G24G25G12G29G20G02
  -4432978.16047  -3438222.57946  23828989.9064   23828996.7474   23828988.629
        46.0004         41.0004
 -14985296.53348 -11667996.86448  22054875.1194   22054879.3754   22054874.872
        53.0004         49.0004
  -4797624.61947  -3695682.48146  23983939.0594   23983947.8954   23983938.530
        45.0004         40.0004
 -18170884.14249 -14118764.78348  21434448.5984   21434455.0434   21434448.649
        54.0004         50.0004
 -25768405.55349 -20071565.09448  20135316.4374   20135319.0694   20135316.151
        58.0004         53.0004
 -11855152.11248  -9205649.62447  22669490.0184   22669493.6884   22669490.384
        50.0004         45.0004
  -3626889.36847  -2782381.34646  23909516.8664   23909522.6074   23909516.880
        44.0004         40.0004
 -22979461.98949 -17844941.52348  20463060.1974   20463061.2724   20463060.724
        55.0004         51.0004
 17  2  4  2 37 30.0000000  0  8G06G05G24G25G12G29G20G02
  -4334936.79747  -3361826.75046  23847646.9974   23847653.5934   23847647.034
        46.0004         41.0004
 -15046945.44248 -11716034.94848  22043143.9694   22043147.9004   22043143.373
        53.0004         49.0004
  -4702338.52847  -3621433.72646  24002071.8674   24002080.6904   24002070.852
        45.0004         40.0004
 -18236302.47249 -14169740.09848  21422000.0844   21422006.2704   21422000.250
        54.0004         50.0004
 -25757061.61349 -20062725.67548  20137475.2834   20137477.7404   20137475.067
        58.0004         53.0004
 -11919258.48748  -9255602.61647  22657290.9664   22657294.8774   22657290.589
        50.0004         45.0004
  -3731593.06147  -2863968.47446  23889591.2854   23889598.0574   23889591.999
        44.0004         40.0004
 -22917404.61249 -17796585.14048  20474869.4114   20474870.4924   20474869.641
        55.0004         51.0004
 17  2  4  2 38  0.0000000  0  8G06G05G24G25G12G29G20G02
  -4236843.51347  -3285390.49247  23866312.3984   23866320.4264   23866312.839
        46.0004         42.0004
 -15108193.88848 -11763760.98848  22031488.4684   22031492.2564   22031488.208
        53.0004         49.0004
  -4607036.08047  -3547172.19746  24020205.9544   24020215.1084   24020206.195
        45.0004         41.0004
 -18301341.62349 -14220419.94748  21409623.3524   21409629.6174   21409623.383
        54.0004         50.0004
 -25745181.53549 -20053468.48448  20139735.8134   20139738.4424   20139735.443
        58.0004         53.0004
 -11983287.97248  -9305495.69947  22645106.2464   22645109.9194   22645106.475
        50.0004         45.0004
  -3836267.59547  -2945532.88346  23869672.2934   23869678.7884   23869674.451
        45.0004         40.0004
 -22854964.74949 -17747930.70948  20486751.1724   20486752.1874   20486751.640
        55.0004         50.0004
 17  2  4  2 38 30.0000000  0  8G06G05G24G25G12G29G20G02
  -4138700.23047  -3208915.25946  23884990.5384   23884998.1684   23884990.482
        46.0004         41.0004
 -15169039.25949 -11811172.94548  22019910.1194   22019913.7574   22019909.537
        54.0004         49.0004
  -4511719.61647  -3472899.76746  24038343.1944   24038351.7204   24038343.473
        45.0004         40.0004
 -18365999.19549 -14270802.46548  21397319.6824   21397325.5414   21397319.720
        55.0004         50.0004
 -25732764.92549 -20043793.21848  20142098.8134   20142101.2634   20142098.520
        58.0004         53.0004
 -12047240.75848  -9355329.01447  22632936.7254   22632940.2574   22632937.171
        50.0004         45.0004
  -3940910.07347  -3027072.32946  23849760.0294   23849765.8374   23849759.897
        45.0004         40.0004
 -22792144.72449 -17698980.05348  20498705.3534   20498706.4864   20498706.006
        55.0004         50.0004
 17  2  4  2 39  0.0000000  0  8G06G05G24G25G12G29G20G02
  -4040508.68947  -3132402.43546  23903676.1144   23903682.3184   23903673.818
        46.0004         41.0004
 -15229479.25649 -11858269.03448  22008408.5324   22008412.6404   22008408.425
        54.0004         49.0004
  -4416392.62347  -3398619.15346  24056484.9354   24056494.1304   24056484.093
        44.0004         40.0004
 -18430272.59449 -14320885.62448  21385088.5114   21385094.8624   21385089.026
        55.0004         50.0004
 -25719811.19149 -20033699.41448  20144563.6224   20144566.3124   20144563.415
        58.0004         53.0004
 -12111116.61848  -9405102.38047  22620780.6214   22620785.4124   22620781.383
        50.0004         45.0004
  -4045517.83747  -3108584.70546  23829853.8814   23829860.5274   23829854.048
        45.0004         40.0004
 -22728946.81249 -17649734.93848  20510731.5444   20510732.7734   20510732.132
        55.0004         50.0004
 17  2  4  2 39 30.0000000  0  8G06G05G24G25G12G29G20G02
  -3942270.96447  -3055853.58447  23922368.0244   23922378.0534   23922368.975
        46.0004         42.0004
 -15289511.32749 -11905047.25348  21996984.6714   21996988.9504   21996984.670
        54.0004         49.0004
  -4321057.82047  -3324332.43146  24074624.8774   24074634.9814   24074623.832
        44.0004         39.0004
 -18494159.41449 -14370667.55748  21372931.5904   21372937.6174   21372931.520
        55.0004         50.0004
 -25706319.49049 -20023186.41448  20147131.1204   20147133.6304   20147130.799
        58.0004         53.0004
 -12174915.38148  -9454815.68647  22608641.3814   22608644.0624   22608640.747
        50.0004         45.0004
  -4150088.51747  -3190068.21246  23809954.5964   23809960.7764   23809955.151
        45.0004         41.0004
 -22665373.83049 -17600197.55948  20522829.1034   20522830.0474   20522829.561
        55.0004         50.0004
 17  2  4  2 40  0.0000000  0  8G06G05G24G25G12G29G20G02
  -3843988.74347  -2979270.10746  23941072.7734   23941078.3074   23941070.747
        46.0004         41.0004
 -15349133.37049 -11951505.97248  21985639.3374   21985642.7814   21985638.510
        54.0004         49.0004
  -4225718.21247  -3250041.96146  24092770.7194   24092777.9784   24092769.580
        44.0004         39.0004
 -18557657.06649 -14420146.24048  21360848.3394   21360854.4014   21360848.220
        55.0004         50.0004
 -25692289.77949 -20012254.18248  20149801.0344   20149803.3634   20149800.579
        58.0004         53.0004
 -12238636.69148  -9504468.63847  22596515.4874   22596519.5334   22596515.041
        50.0004         45.0004
  -4254619.16747  -3271520.53046  23790061.8784   23790068.9634   23790062.286
        45.0004         40.0004
 -22601428.41749 -17550369.97948  20534997.9564   20534998.7034   20534998.239
        55.0004         50.0004
 17  2  4  2 40 30.0000000  0  8G06G05G24G25G12G29G20G02
  -3745663.89247  -2902653.39246  23959781.5854   23959790.1584   23959781.299
        46.0004         41.0004
 -15408342.71749 -11997643.11748  21974371.9094   21974375.9984   21974371.505
        54.0004         49.0004
  -4130376.64747  -3175749.96746  24110915.0884   24110920.5854   24110912.439
        44.0004         39.0004
 -18620763.08449 -14469319.75448  21348839.6724   21348845.7534   21348839.712
        55.0004         50.0004
 -25677721.28449 -20000902.12348  20152573.2454   20152575.7324   20152572.898
        58.0004         53.0004
 -12302280.43048  -9554061.14347  22584403.9614   22584407.1844   22584403.834
        50.0004         45.0004
  -4359107.53047  -3352939.88946  23770177.7884   23770184.0674   23770179.348
        45.0004         41.0004
 -22537112.98549 -17500254.07148  20547236.3744   20547237.7184   20547236.822
        55.0004         50.0004
 17  2  4  2 41  0.0000000  0  8G06G05G24G25G12G29G20G02
  -3647298.26947  -2826004.92746  23978500.8754   23978507.3354   23978501.401
        46.0004         41.0004
 -15467136.76449 -12043456.64548  21963184.0374   21963187.6754   21963183.648
        54.0004         49.0004
  -4035035.97047  -3101458.66446  24129054.9844   24129063.8764   24129054.312
        44.0004         39.0004
 -18683474.99249 -14518186.16948  21336905.9654   21336911.9904   21336905.978
        55.0004         50.0004
 -25662613.14549 -19989129.55848  20155448.1974   20155450.7044   20155447.902
        58.0004         53.0004
 -12365846.66348  -9603593.24247  22572307.8414   22572311.3924   22572307.204
        50.0004         45.0004
  -4463550.64547  -3434324.00946  23750304.3044   23750310.1394   23750304.194
        45.0004         40.0004
 -22472429.61249 -17449851.45548  20559545.3234   20559546.2984   20559545.677
        55.0004         50.0004
 17  2  4  2 41 30.0000000  0  8G06G05G24G25G12G29G20G02
  -3548893.66747  -2749326.05846  23997225.4574   23997234.2254   23997225.398
        46.0004         41.0004
 -15525513.58349 -12088945.06148  21952074.7904   21952078.8144   21952074.502
        54.0004         49.0004
  -3939699.14147  -3027170.37346  24147196.0964   24147205.7094   24147197.307
        44.0004         39.0004
 -18745790.23349 -14566743.49148  21325047.6434   21325053.8494   21325047.747
        55.0004         50.0004
 -25646964.90949 -19976936.13948  20158425.8834   20158428.5974   20158425.673
        58.0004         53.0004
 -12429334.97748  -9653064.62547  22560226.0264   22560229.4594   22560225.767
        50.0004         45.0004
  -4567945.94547  -3515670.87046  23730437.6934   23730442.8214   23730438.805
        45.0004         40.0004
 -22407380.97249 -17399164.21648  20571923.7134   20571924.8364   20571924.025
        55.0004         50.0004
 17  2  4  2 42  0.0000000  0  8G06G05G24G25G12G29G20G02
  -3450451.99347  -2672618.31046  24015959.1144   24015966.4494   24015957.614
        46.0004         41.0004
 -15583470.90849 -12134106.59348  21941046.1754   21941050.2854   21941045.619
        54.0004         49.0004
  -3844369.07847  -2952887.36246  24165338.8864   24165347.8074   24165337.648
        44.0004         40.0004
 -18807706.39549 -14614989.84848  21313265.6954   21313271.7414   21313265.712
        55.0004         50.0004
 -25630776.56949 -19964321.85848  20161506.5824   20161509.0824   20161506.180
        58.0004         53.0004
 -12492745.34848  -9702475.29247  22548159.5694   22548163.3774   22548159.300
        50.0004         45.0004
  -4672290.97847  -3596978.57446  23710582.4084   23710588.3694   23710582.499
        45.0004         40.0004
 -22341969.55149 -17348194.29248  20584371.1394   20584372.0274   20584371.311
        55.0004         50.0004
 17  2  4  2 42 30.0000000  0  8G06G05G24G25G12G29G20G02
  -3351974.80647  -2595882.90146  24034699.3214   24034707.2964   24034698.207
        46.0004         41.0004
 -15641006.08149 -12178939.17848  21930097.0014   21930101.6834   21930096.920
        54.0004         49.0004
  -3749048.84847  -2878612.00746  24183476.7314   24183485.7894   24183476.425
        44.0004         40.0004
 -18869220.87449 -14662923.19548  21301559.8374   21301565.7844   21301559.590
        55.0004         50.0004
 -25614047.24049 -19951286.02848  20164689.9494   20164692.5804   20164689.787
        58.0004         53.0004
 -12556077.52748  -9751825.02047  22536107.9484   22536111.4564   22536107.771
        50.0004         45.0004
  -4776582.86947  -3678244.84046  23690734.4544   23690742.1424   23690735.702
        45.0004         40.0004
 -22276197.68249 -17296943.49648  20596886.9724   20596888.3044   20596887.511
        55.0004         50.0004
 17  2  4  2 43  0.0000000  0  8G06G05G24G25G12G29G20G02
  -3253464.21847  -2519121.45746  24053445.0164   24053452.1914   24053444.790
        45.0004         41.0004
 -15698116.85749 -12223441.06048  21919229.7604   21919233.6844   21919229.073
        54.0004         49.0004
  -3653741.26247  -2804346.51746  24201612.9804   24201622.2584   24201614.160
        44.0004         39.0004
 -18930331.45349 -14710541.81948  21289930.5364   21289937.2274   21289930.775
        55.0004         50.0004
 -25596776.27649 -19937828.14248  20167976.4194   20167979.1774   20167976.144
        58.0004         53.0004
 -12619331.46648  -9801113.78847  22524070.9844   22524074.5154   22524070.591
        50.0004         45.0004
  -4880819.21247  -3759467.84746  23670899.0704   23670905.9724   23670900.326
        45.0004         40.0004
 -22210068.08849 -17245413.95748  20609470.9944   20609472.2494   20609471.275
        55.0004         50.0004
 17  2  4  2 43 30.0000000  0  8G06G05G24G25G12G29G20G02
  -3154921.80047  -2442335.22046  24072197.1404   24072204.2034   24072195.393
        46.0004         41.0004
 -15754801.08849 -12267610.57448  21908443.0334   21908447.1534   21908442.704
        54.0004         49.0004
  -3558449.31847  -2730093.23646  24219747.5984   24219756.1834   24219746.375
        44.0004         39.0004
 -18991035.32549 -14757843.52948  21278379.0124   21278385.1054   21278379.251
        55.0004         50.0004
 -25578963.84449 -19923948.33748  20171366.1174   20171368.7874   20171365.830
        58.0004         53.0004
 -12682506.79948  -9850341.30647  22512049.3624   22512052.8394   22512048.810
        50.0004         45.0004
  -4984997.17347  -3840645.37446  23651074.5004   23651081.4474   23651075.423
        45.0004         40.0004
 -22143582.85349 -17193607.29348  20622122.8044   20622124.1534   20622123.261
        55.0004         50.0004
 17  2  4  2 44  0.0000000  0  9G06G05G24G25G12G29G20G31G02
  -3056349.36847  -2365525.58146  24090955.6544   24090962.1544   24090954.047
        46.0004         41.0004
 -15811056.05449 -12311445.58348  21897737.8754   21897741.9774   21897737.310
        54.0004         49.0004
  -3463175.35347  -2655853.96546  24237877.1154   24237885.0004   24237876.809
        43.0004         39.0004
 -19051330.30649 -14804826.62348  21266905.3994   21266911.5354   21266905.514
        55.0004         50.0004
 -25560609.85749 -19909646.54048  20174858.8924   20174861.3044   20174858.623
        58.0004         53.0004
 -12745603.36348  -9899507.43747  22500042.2844   22500045.9574   22500041.755
        50.0004         45.0004
  -5089114.10847  -3921775.35946  23631262.5804   23631268.7524   23631261.984
        45.0004         40.0004
                                                                  24747176.513

 -22076744.81249 -17141525.71948  20634841.7514   20634842.9574   20634842.148
        55.0004         50.0004
 17  2  4  2 44 30.0000000  0  9G06G05G24G25G12G29G20G31G02
  -2957748.80547  -2288694.01546  24109717.5534   24109725.9274   24109716.902
        45.0004         41.0004
 -15866879.90749 -12354944.66548  21887115.3704   21887119.1884   21887114.929
        54.0004         49.0004
  -3367922.79547  -2581631.34246  24256003.6594   24256012.0764   24256003.630
        44.0004         39.0004
 -19111213.99649 -14851489.22548  21255510.1104   21255516.0264   21255509.788
        55.0004         50.0004
 -25541713.49649 -19894922.11248  20178454.7194   20178457.2974   20178454.462
        58.0004         53.0004
 -12808621.06348  -9948612.11447  22488050.9924   22488054.2634   22488050.174
        50.0004         45.0004
  -5193167.67647  -4002855.94146  23611462.0934   23611467.8284   23611461.650
        45.0004         40.0004
   -190732.05747   -116368.02146  24736543.7504   24736544.5184   24736543.224
        46.0004         38.0004
 -22009556.54749 -17089171.23948  20647627.2304   20647628.6374   20647627.747
        55.0004         50.0004
 17  2  4  2 45  0.0000000  0  9G06G05G24G25G12G29G20G31G02
  -2859121.58547  -2211841.68846  24128485.9574   24128493.8394   24128485.415
        45.0004         41.0004
 -15922269.95349 -12398105.71548  21876574.7104   21876578.4784   21876574.360
        54.0004         49.0004
  -3272694.26347  -2507427.45246  24274125.6544   24274133.7204   24274124.940
        44.0004         40.0004
 -19170683.56149 -14897829.13948  21244193.1294   21244199.4184   21244193.298
        55.0004         50.0004
 -25522273.97249 -19879774.44148  20182153.8874   20182156.3864   20182153.772
        58.0004         53.0004
 -12871559.39948  -9997654.95947  22476073.9954   22476077.2374   22476073.934
        50.0004         46.0004
  -5297154.47147  -4083884.49946  23591672.6294   23591679.2974   23591674.217
        45.0004         40.0004
   -246131.16047   -159536.19346  24726002.2154   24726005.2314   24725999.692
        44.0004         38.0004
 -21942019.96349 -17036545.34248  20660478.7154   20660480.2504   20660479.353
        55.0004         50.0004
 17  2  4  2 45 30.0000000  0  9G06G05G24G25G12G29G20G31G02
  -2760469.70447  -2134970.16546  24147259.0524   24147265.1854   24147258.341
        46.0004         41.0004
 -15977224.49549 -12440927.40248  21866117.2734   21866121.4714   21866116.922
        54.0004         49.0004
  -3177492.68547  -2433244.59146  24292240.7744   24292250.0234   24292240.653
        44.0004         39.0004
 -19229736.88549 -14943844.70448  21232955.5754   21232962.1874   21232955.798
        55.0004         50.0004
 -25502291.49249 -19864203.68948  20185956.4104   20185958.9304   20185956.130
        57.0004         53.0004
 -12934418.43448 -10046636.00047  22464112.1594   22464115.4354   22464112.070
        50.0004         46.0004
  -5401072.47547  -4164859.46746  23571899.4164   23571904.5274   23571899.305
        45.0004         41.0004
   -301042.44747   -202324.18946  24715551.7374   24715554.7044   24715550.518
        43.0004         39.0004
 -21874137.73849 -16983650.11748  20673396.5204   20673397.8614   20673396.911
        55.0004         50.0004
